[
  {
    "node_id": "AIL_GBR_GBR",
    "company_name": "ADEY Innovation Ltd",
    "process": [
      5
    ],
    "country_branch/plant": "UK",
    "country_HQ": "UK",
    "city": "Stonehouse",
    "lat": 51.7583,
    "lng": 2.2965,
    "active_years": [
      2009,
      2010,
      2011,
      2012,
      2013,
      2014,
      2015,
      2016,
      2017,
      2018,
      2019,
      2020,
      2021,
      2022,
      2023,
      2024
    ]
  },
  {
    "node_id": "ATMCL_CHN_CHN",
    "company_name": "Advanced Technology & Materials Co Ltd",
    "process": [
      2,
      3
    ],
    "country_branch/plant": "China",
    "country_HQ": "China",
    "city": "Beijing",
    "lat": 39.9075,
    "lng": 116.39723,
    "active_years": [
      2009,
      2010,
      2011,
      2012,
      2013,
      2014,
      2015,
      2016,
      2017,
      2018,
      2019,
      2020,
      2021,
      2022,
      2023,
      2024
    ]
  },
  {
    "node_id": "AS_DEU_NLD",
    "company_name": "Airbus SE",
    "process": [
      5
    ],
    "country_branch/plant": "Germany",
    "country_HQ": "Netherlands",
    "city": "Hamburg",
    "lat": 53.5511,
    "lng": 9.9937,
    "active_years": [
      2009,
      2010,
      2011,
      2012,
      2013,
      2014,
      2015,
      2016,
      2017,
      2018,
      2019,
      2020,
      2021,
      2022,
      2023,
      2024
    ]
  },
  {
    "node_id": "AS_ESP_NLD",
    "company_name": "Airbus SE",
    "process": [
      5
    ],
    "country_branch/plant": "Spain",
    "country_HQ": "Netherlands",
    "city": "Getafe",
    "lat": 40.3057,
    "lng": -3.733,
    "active_years": [
      2009,
      2010,
      2011,
      2012,
      2013,
      2014,
      2015,
      2016,
      2017,
      2018,
      2019,
      2020,
      2021,
      2022,
      2023,
      2024
    ]
  },
  {
    "node_id": "AS_GBR_NLD",
    "company_name": "Airbus SE",
    "process": [
      5
    ],
    "country_branch/plant": "UK",
    "country_HQ": "Netherlands",
    "city": "Broughton",
    "lat": 53.1732,
    "lng": -2.9604,
    "active_years": [
      2009,
      2010,
      2011,
      2012,
      2013,
      2014,
      2015,
      2016,
      2017,
      2018,
      2019,
      2020,
      2021,
      2022,
      2023,
      2024
    ]
  },
  {
    "node_id": "AS_FRA_NLD",
    "company_name": "Airbus SE",
    "process": [
      5
    ],
    "country_branch/plant": "France",
    "country_HQ": "Netherlands",
    "city": "Blagnac",
    "lat": 43.6073,
    "lng": 1.3578,
    "active_years": [
      2009,
      2010,
      2011,
      2012,
      2013,
      2014,
      2015,
      2016,
      2017,
      2018,
      2019,
      2020,
      2021,
      2022,
      2023,
      2024
    ]
  },
  {
    "node_id": "AISC_CZE_JPN",
    "company_name": "Aisin Corp",
    "process": [
      4
    ],
    "country_branch/plant": "Czech Republic",
    "country_HQ": "Japan",
    "city": "Písek",
    "lat": 49.3035,
    "lng": 14.158,
    "active_years": [
      2009,
      2010,
      2011,
      2012,
      2013,
      2014,
      2015,
      2016,
      2017,
      2018,
      2019,
      2020,
      2021,
      2022,
      2023,
      2024
    ]
  },
  {
    "node_id": "AISC_FRA_JPN",
    "company_name": "Aisin Corp",
    "process": [
      4
    ],
    "country_branch/plant": "France",
    "country_HQ": "Japan",
    "city": "Sophia Antipolis",
    "lat": 43.616354,
    "lng": 7.055222,
    "active_years": [
      2009,
      2010,
      2011,
      2012,
      2013,
      2014,
      2015,
      2016,
      2017,
      2018,
      2019,
      2020,
      2021,
      2022,
      2023,
      2024
    ]
  },
  {
    "node_id": "AISC_GBR_JPN",
    "company_name": "Aisin Corp",
    "process": [
      4
    ],
    "country_branch/plant": "UK",
    "country_HQ": "Japan",
    "city": "Birmingham",
    "lat": 52.442444,
    "lng": -2.009468,
    "active_years": [
      2009,
      2010,
      2011,
      2012,
      2013,
      2014,
      2015,
      2016,
      2017,
      2018,
      2019,
      2020,
      2021,
      2022,
      2023,
      2024
    ]
  },
  {
    "node_id": "AOA_DEU_DEU",
    "company_name": "ams OSRAM AG",
    "process": [
      4
    ],
    "country_branch/plant": "Germany",
    "country_HQ": "Germany",
    "city": "Regensburg",
    "lat": 48.997118,
    "lng": 12.160669,
    "active_years": [
      2020,
      2021,
      2022,
      2023,
      2024
    ]
  },
  {
    "node_id": "APSAP_CHE_CHE",
    "company_name": "Angst+Pfister Sensors and Power",
    "process": [
      4
    ],
    "country_branch/plant": "Switzerland",
    "country_HQ": "Switzerland",
    "city": "Zürich",
    "lat": 47.3667,
    "lng": 8.55,
    "active_years": [
      2009,
      2010,
      2011,
      2012,
      2013,
      2014,
      2015,
      2016,
      2017,
      2018,
      2019,
      2020,
      2021,
      2022,
      2023,
      2024
    ]
  },
  {
    "node_id": "ABJ_CHN_CHN",
    "company_name": "Anhui Baogang JV",
    "process": [
      2
    ],
    "country_branch/plant": "China",
    "country_HQ": "China",
    "city": "Hefei",
    "lat": 31.82,
    "lng": 117.23,
    "active_years": [
      2011,
      2012,
      2013,
      2014,
      2015,
      2016,
      2017,
      2018,
      2019,
      2020,
      2021,
      2022,
      2023,
      2024
    ]
  },
  {
    "node_id": "ARE_AUS_AUS",
    "company_name": "Arafura Rare Earths",
    "process": [
      1
    ],
    "country_branch/plant": "Australia",
    "country_HQ": "Australia",
    "city": "Nolans Bore (NT)",
    "lat": -22.581944,
    "lng": 133.239722,
    "active_years": [
      2009,
      2010,
      2011,
      2012,
      2013,
      2014,
      2015,
      2016,
      2017,
      2018,
      2019,
      2020,
      2021,
      2022,
      2023,
      2024
    ]
  },
  {
    "node_id": "ARL_GBR_GBR",
    "company_name": "AREERA Ltd",
    "process": [
      6
    ],
    "country_branch/plant": "UK",
    "country_HQ": "UK",
    "city": "Elland",
    "lat": 53.6931,
    "lng": -1.8385,
    "active_years": [
      2020,
      2021,
      2022,
      2023,
      2024
    ]
  },
  {
    "node_id": "AMT_GBR_USA",
    "company_name": "Arnold Magnetic Technologies",
    "process": [
      3
    ],
    "country_branch/plant": "UK",
    "country_HQ": "USA",
    "city": "Sheffield",
    "lat": 53.38297,
    "lng": -1.4659,
    "active_years": [
      2009,
      2010,
      2011,
      2012,
      2013,
      2014,
      2015,
      2016,
      2017,
      2018,
      2019,
      2020,
      2021,
      2022,
      2023,
      2024
    ]
  },
  {
    "node_id": "AMT_CHE_USA",
    "company_name": "Arnold Magnetic Technologies",
    "process": [
      3
    ],
    "country_branch/plant": "Switzerland",
    "country_HQ": "USA",
    "city": "Lupfig",
    "lat": 47.4409,
    "lng": 8.2043,
    "active_years": [
      2009,
      2010,
      2011,
      2012,
      2013,
      2014,
      2015,
      2016,
      2017,
      2018,
      2019,
      2020,
      2021,
      2022,
      2023,
      2024
    ]
  },
  {
    "node_id": "AMT_CHN_USA",
    "company_name": "Arnold Magnetic Technologies",
    "process": [
      3
    ],
    "country_branch/plant": "China",
    "country_HQ": "USA",
    "city": "Shenzhen",
    "lat": 22.5429,
    "lng": 114.0596,
    "active_years": [
      2009,
      2010,
      2011,
      2012,
      2013,
      2014,
      2015,
      2016,
      2017,
      2018,
      2019,
      2020,
      2021,
      2022,
      2023,
      2024
    ]
  },
  {
    "node_id": "AL_DEU_JPN",
    "company_name": "Astemo Ltd",
    "process": [
      4
    ],
    "country_branch/plant": "Germany",
    "country_HQ": "Japan",
    "city": "Schwaig-Oberding",
    "lat": 48.350703,
    "lng": 11.831677,
    "active_years": [
      2009,
      2010,
      2011,
      2012,
      2013,
      2014,
      2015,
      2016,
      2017,
      2018,
      2019,
      2020,
      2021,
      2022,
      2023,
      2024
    ]
  },
  {
    "node_id": "AL_FRA_JPN",
    "company_name": "Astemo Ltd",
    "process": [
      4
    ],
    "country_branch/plant": "France",
    "country_HQ": "Japan",
    "city": "Drancy",
    "lat": 48.93,
    "lng": 2.45,
    "active_years": [
      2010,
      2011,
      2012,
      2013,
      2014,
      2015,
      2016,
      2017,
      2018,
      2019,
      2020,
      2021,
      2022,
      2023,
      2024
    ]
  },
  {
    "node_id": "AL_ESP_JPN",
    "company_name": "Astemo Ltd",
    "process": [
      4
    ],
    "country_branch/plant": "Spain",
    "country_HQ": "Japan",
    "city": "Barcelona",
    "lat": 41.287592,
    "lng": 2.050936,
    "active_years": [
      2009,
      2010,
      2011,
      2012,
      2013,
      2014,
      2015,
      2016,
      2017,
      2018,
      2019,
      2020,
      2021,
      2022,
      2023,
      2024
    ]
  },
  {
    "node_id": "AZLA_AUS_AUS",
    "company_name": "Australian Zirconia Ltd (AZL)",
    "process": [
      1
    ],
    "country_branch/plant": "Australia",
    "country_HQ": "Australia",
    "city": "Toongi (near Dubbo)",
    "lat": -32.466,
    "lng": 148.608,
    "active_years": [
      2009,
      2010,
      2011,
      2012,
      2013,
      2014,
      2015,
      2016,
      2017,
      2018,
      2019,
      2020,
      2021,
      2022,
      2023,
      2024
    ]
  },
  {
    "node_id": "BCS_ITA_ITA",
    "company_name": "B&C Speakers",
    "process": [
      4
    ],
    "country_branch/plant": "Italy",
    "country_HQ": "Italy",
    "city": "Bagno a Ripoli",
    "lat": 43.7522,
    "lng": 11.32,
    "active_years": [
      2009,
      2010,
      2011,
      2012,
      2013,
      2014,
      2015,
      2016,
      2017,
      2018,
      2019,
      2020,
      2021,
      2022,
      2023,
      2024
    ]
  },
  {
    "node_id": "BMSCL_CHN_DEU",
    "company_name": "Baermann Magnets (Suzhou) Co Ltd",
    "process": [
      3
    ],
    "country_branch/plant": "China",
    "country_HQ": "Germany",
    "city": "Suzhou",
    "lat": 31.2989,
    "lng": 120.5853,
    "active_years": [
      2016,
      2017,
      2018,
      2019,
      2020,
      2021,
      2022,
      2023,
      2024
    ]
  },
  {
    "node_id": "BM_NLD_NLD",
    "company_name": "Bakker Magnetics",
    "process": [
      3
    ],
    "country_branch/plant": "Netherlands",
    "country_HQ": "Netherlands",
    "city": "Son (Science Park Eindhoven)",
    "lat": 51.51098,
    "lng": 5.49358,
    "active_years": [
      2009,
      2010,
      2011,
      2012,
      2013,
      2014,
      2015,
      2016,
      2017,
      2018,
      2019,
      2020,
      2021,
      2022,
      2023,
      2024
    ]
  },
  {
    "node_id": "BIASG_CHN_CHN",
    "company_name": "Baotou Iron and Steel Group",
    "process": [
      1,
      2
    ],
    "country_branch/plant": "China",
    "country_HQ": "China",
    "city": "Baotou",
    "lat": 40.657,
    "lng": 109.843,
    "active_years": [
      2009,
      2010,
      2011,
      2012,
      2013,
      2014,
      2015,
      2016,
      2017,
      2018,
      2019,
      2020,
      2021,
      2022,
      2023,
      2024
    ]
  },
  {
    "node_id": "BTM_CHN_CHN",
    "company_name": "Baotou Tianhe Magnetics",
    "process": [
      3
    ],
    "country_branch/plant": "China",
    "country_HQ": "China",
    "city": "Baotou",
    "lat": 40.657378,
    "lng": 109.840349,
    "active_years": [
      2009,
      2010,
      2011,
      2012,
      2013,
      2014,
      2015,
      2016,
      2017,
      2018,
      2019,
      2020,
      2021,
      2022,
      2023,
      2024
    ]
  },
  {
    "node_id": "BMWAB_DEU_DEU",
    "company_name": "Bayerische Motoren Werke AG (BMW)",
    "process": [
      5
    ],
    "country_branch/plant": "Germany",
    "country_HQ": "Germany",
    "city": "Munich",
    "lat": 48.1351,
    "lng": 11.582,
    "active_years": [
      2013,
      2014,
      2015,
      2016,
      2017,
      2018,
      2019,
      2020,
      2021,
      2022,
      2023,
      2024
    ]
  },
  {
    "node_id": "BENM_GBR_GBR",
    "company_name": "Bentley Motors ",
    "process": [
      5
    ],
    "country_branch/plant": "UK",
    "country_HQ": "UK",
    "city": "Crewe",
    "lat": 53.099,
    "lng": -2.441,
    "active_years": [
      2009,
      2010,
      2011,
      2012,
      2013,
      2014,
      2015,
      2016,
      2017,
      2018,
      2019,
      2020,
      2021,
      2022,
      2023,
      2024
    ]
  },
  {
    "node_id": "BMSB_MYS_CHE",
    "company_name": "Bomatec (Malaysia) Sdn Bhd",
    "process": [
      4
    ],
    "country_branch/plant": "Malaysia",
    "country_HQ": "Switzerland",
    "city": "Port Klang",
    "lat": 3.00417,
    "lng": 101.41338,
    "active_years": [
      2014,
      2015,
      2016,
      2017,
      2018,
      2019,
      2020,
      2021,
      2022,
      2023,
      2024
    ]
  },
  {
    "node_id": "BA_CHE_CHE",
    "company_name": "Bomatec AG",
    "process": [
      4
    ],
    "country_branch/plant": "Switzerland",
    "country_HQ": "Switzerland",
    "city": "Höri",
    "lat": 47.5077,
    "lng": 8.5094,
    "active_years": [
      2009,
      2010,
      2011,
      2012,
      2013,
      2014,
      2015,
      2016,
      2017,
      2018,
      2019,
      2020,
      2021,
      2022,
      2023,
      2024
    ]
  },
  {
    "node_id": "BI_PRT_USA",
    "company_name": "BorgWarner Inc",
    "process": [
      5
    ],
    "country_branch/plant": "Portugal",
    "country_HQ": "USA",
    "city": "Viana do Castelo",
    "lat": 41.7454,
    "lng": 8.7058,
    "active_years": [
      2009,
      2010,
      2011,
      2012,
      2013,
      2014,
      2015,
      2016,
      2017,
      2018,
      2019,
      2020,
      2021,
      2022,
      2023,
      2024
    ]
  },
  {
    "node_id": "BOUI_DEU_USA",
    "company_name": "Bourns Inc",
    "process": [
      4
    ],
    "country_branch/plant": "Germany",
    "country_HQ": "USA",
    "city": "Aschheim",
    "lat": 48.171,
    "lng": 11.705,
    "active_years": [
      2009,
      2010,
      2011,
      2012,
      2013,
      2014,
      2015,
      2016,
      2017,
      2018,
      2019,
      2020,
      2021,
      2022,
      2023,
      2024
    ]
  },
  {
    "node_id": "BOUI_HUN_USA",
    "company_name": "Bourns Inc",
    "process": [
      4
    ],
    "country_branch/plant": "Hungary",
    "country_HQ": "USA",
    "city": "Ajka",
    "lat": 47.103,
    "lng": 17.576,
    "active_years": [
      2009,
      2010,
      2011,
      2012,
      2013,
      2014,
      2015,
      2016,
      2017,
      2018,
      2019,
      2020,
      2021,
      2022,
      2023,
      2024
    ]
  },
  {
    "node_id": "BWBW_GBR_GBR",
    "company_name": "Bowers & Wilkins (B&W)",
    "process": [
      5
    ],
    "country_branch/plant": "UK",
    "country_HQ": "UK",
    "city": "Worthing",
    "lat": 50.818,
    "lng": -0.375,
    "active_years": [
      2009,
      2010,
      2011,
      2012,
      2013,
      2014,
      2015,
      2016,
      2017,
      2018,
      2019,
      2020,
      2021,
      2022,
      2023,
      2024
    ]
  },
  {
    "node_id": "BRE_AUS_AUS",
    "company_name": "Brazilian Rare Earths",
    "process": [
      1
    ],
    "country_branch/plant": "Australia",
    "country_HQ": "Australia",
    "city": "Perth",
    "lat": -31.9535,
    "lng": 115.857,
    "active_years": [
      2021,
      2022,
      2023,
      2024
    ]
  },
  {
    "node_id": "BFSCK_DEU_DEU",
    "company_name": "Brose Fahrzeugteile SE & Co KG",
    "process": [
      4
    ],
    "country_branch/plant": "Germany",
    "country_HQ": "Germany",
    "city": "Würzburg",
    "lat": 49.7967,
    "lng": 9.9736,
    "active_years": [
      2009,
      2010,
      2011,
      2012,
      2013,
      2014,
      2015,
      2016,
      2017,
      2018,
      2019,
      2020,
      2021,
      2022,
      2023,
      2024
    ]
  },
  {
    "node_id": "BFSCK_CZE_DEU",
    "company_name": "Brose Fahrzeugteile SE & Co KG",
    "process": [
      4
    ],
    "country_branch/plant": "Czechia",
    "country_HQ": "Germany",
    "city": "Kopřivnice",
    "lat": 49.599,
    "lng": 18.144,
    "active_years": [
      2009,
      2010,
      2011,
      2012,
      2013,
      2014,
      2015,
      2016,
      2017,
      2018,
      2019,
      2020,
      2021,
      2022,
      2023,
      2024
    ]
  },
  {
    "node_id": "BFSCK_SVK_DEU",
    "company_name": "Brose Fahrzeugteile SE & Co KG",
    "process": [
      4
    ],
    "country_branch/plant": "Slovakia",
    "country_HQ": "Germany",
    "city": "Prievidza",
    "lat": 48.775,
    "lng": 18.628,
    "active_years": [
      2016,
      2017,
      2018,
      2019,
      2020,
      2021,
      2022,
      2023,
      2024
    ]
  },
  {
    "node_id": "BFSCK_HUN_DEU",
    "company_name": "Brose Fahrzeugteile SE & Co KG",
    "process": [
      4
    ],
    "country_branch/plant": "Hungary",
    "country_HQ": "Germany",
    "city": "Kecskemét",
    "lat": 46.906,
    "lng": 19.69,
    "active_years": [
      2011,
      2012,
      2013,
      2014,
      2015,
      2016,
      2017,
      2018,
      2019,
      2020,
      2021,
      2022,
      2023,
      2024
    ]
  },
  {
    "node_id": "BFSCK_ESP_DEU",
    "company_name": "Brose Fahrzeugteile SE & Co KG",
    "process": [
      4
    ],
    "country_branch/plant": "Spain",
    "country_HQ": "Germany",
    "city": "Santa Margarida i els Monjos",
    "lat": 41.333,
    "lng": 1.663,
    "active_years": [
      2009,
      2010,
      2011,
      2012,
      2013,
      2014,
      2015,
      2016,
      2017,
      2018,
      2019,
      2020,
      2021,
      2022,
      2023,
      2024
    ]
  },
  {
    "node_id": "BFSCK_GBR_DEU",
    "company_name": "Brose Fahrzeugteile SE & Co KG",
    "process": [
      4
    ],
    "country_branch/plant": "UK",
    "country_HQ": "Germany",
    "city": "Coventry",
    "lat": 52.407,
    "lng": -1.52,
    "active_years": [
      2009,
      2010,
      2011,
      2012,
      2013,
      2014,
      2015,
      2016,
      2017,
      2018,
      2019,
      2020,
      2021,
      2022,
      2023,
      2024
    ]
  },
  {
    "node_id": "BME_GBR_GBR",
    "company_name": "Bunting Magnetics Europe",
    "process": [
      3
    ],
    "country_branch/plant": "UK",
    "country_HQ": "UK",
    "city": "Berkhamsted",
    "lat": 51.7604,
    "lng": -0.56528,
    "active_years": [
      2009,
      2010,
      2011,
      2012,
      2013,
      2014,
      2015,
      2016,
      2017,
      2018,
      2019,
      2020,
      2021,
      2022,
      2023,
      2024
    ]
  },
  {
    "node_id": "BCL_HUN_CHN",
    "company_name": "BYD Co Ltd",
    "process": [
      5
    ],
    "country_branch/plant": "Hungary",
    "country_HQ": "China",
    "city": "Komárom",
    "lat": 47.743,
    "lng": 18.12,
    "active_years": [
      2023,
      2024
    ]
  },
  {
    "node_id": "CFGE_IRL_IRL",
    "company_name": "C&F Green Energy ",
    "process": [
      5
    ],
    "country_branch/plant": "Ireland",
    "country_HQ": "Ireland",
    "city": "Cashla, Athenry",
    "lat": 53.3194,
    "lng": -8.8519,
    "active_years": [
      2010,
      2011,
      2012,
      2013,
      2014,
      2015,
      2016,
      2017,
      2018,
      2019,
      2020,
      2021,
      2022,
      2023,
      2024
    ]
  },
  {
    "node_id": "C_FRA_FRA",
    "company_name": "Carester ",
    "process": [
      6
    ],
    "country_branch/plant": "France",
    "country_HQ": "France",
    "city": "Lyon (3rd arrondissement)",
    "lat": 45.7611,
    "lng": 4.8536,
    "active_years": [
      2019,
      2020,
      2021,
      2022,
      2023,
      2024
    ]
  },
  {
    "node_id": "CI_GBR_USA",
    "company_name": "Caterpillar Inc",
    "process": [
      5
    ],
    "country_branch/plant": "UK",
    "country_HQ": "USA",
    "city": "Desford",
    "lat": 52.62598,
    "lng": -1.29395,
    "active_years": [
      2009,
      2010,
      2011,
      2012,
      2013,
      2014,
      2015,
      2016,
      2017,
      2018,
      2019,
      2020,
      2021,
      2022,
      2023,
      2024
    ]
  },
  {
    "node_id": "CI_IRL_USA",
    "company_name": "Caterpillar Inc",
    "process": [
      5
    ],
    "country_branch/plant": "Ireland",
    "country_HQ": "USA",
    "city": "Larne",
    "lat": 54.854,
    "lng": -5.813,
    "active_years": [
      2009,
      2010,
      2011,
      2012,
      2013,
      2014,
      2015,
      2016,
      2017,
      2018,
      2019,
      2020,
      2021,
      2022,
      2023,
      2024
    ]
  },
  {
    "node_id": "CI_FRA_USA",
    "company_name": "Caterpillar Inc",
    "process": [
      5
    ],
    "country_branch/plant": "France",
    "country_HQ": "USA",
    "city": "Grenoble",
    "lat": 45.1885,
    "lng": 5.7245,
    "active_years": [
      2009,
      2010,
      2011,
      2012,
      2013,
      2014,
      2015,
      2016,
      2017,
      2018,
      2019,
      2020,
      2021,
      2022,
      2023,
      2024
    ]
  },
  {
    "node_id": "CI_POL_USA",
    "company_name": "Caterpillar Inc",
    "process": [
      5
    ],
    "country_branch/plant": "Poland",
    "country_HQ": "USA",
    "city": "Sosnowiec",
    "lat": 50.2863,
    "lng": 19.1041,
    "active_years": [
      2009,
      2010,
      2011,
      2012,
      2013,
      2014,
      2015,
      2016,
      2017,
      2018,
      2019,
      2020,
      2021,
      2022,
      2023,
      2024
    ]
  },
  {
    "node_id": "CL_FRA_FRA",
    "company_name": "CEA-Liten",
    "process": [
      2,
      3
    ],
    "country_branch/plant": "France",
    "country_HQ": "France",
    "city": "Grenoble",
    "lat": 45.2023,
    "lng": 5.7042,
    "active_years": [
      2013,
      2014,
      2015,
      2016,
      2017,
      2018,
      2019,
      2020,
      2021,
      2022,
      2023,
      2024
    ]
  },
  {
    "node_id": "CRFC_ITA_ITA",
    "company_name": "Centro Ricerche Fiat (CRF)",
    "process": [
      4
    ],
    "country_branch/plant": "Italy",
    "country_HQ": "Italy",
    "city": "Orbassano",
    "lat": 45.009,
    "lng": 7.569,
    "active_years": [
      2009,
      2010,
      2011,
      2012,
      2013,
      2014,
      2015,
      2016,
      2017,
      2018,
      2019,
      2020,
      2021,
      2022,
      2023,
      2024
    ]
  },
  {
    "node_id": "CYMCL_CHN_CHN",
    "company_name": "Chengdu Yinci Materials Co Ltd",
    "process": [
      3
    ],
    "country_branch/plant": "China",
    "country_HQ": "China",
    "city": "Chengdu",
    "lat": 30.659,
    "lng": 104.065,
    "active_years": [
      2017,
      2018,
      2019,
      2020,
      2021,
      2022,
      2023,
      2024
    ]
  },
  {
    "node_id": "CMNFM_CHN_CHN",
    "company_name": "China Minmetals Non-Ferrous Metals",
    "process": [
      1,
      2
    ],
    "country_branch/plant": "China",
    "country_HQ": "China",
    "city": "Beijing",
    "lat": 39.904,
    "lng": 116.407,
    "active_years": [
      2009,
      2010,
      2011,
      2012,
      2013,
      2014,
      2015,
      2016,
      2017,
      2018,
      2019,
      2020,
      2021,
      2022,
      2023,
      2024
    ]
  },
  {
    "node_id": "CMREG_CHN_CHN",
    "company_name": "China Minmetals Rare Earth Group",
    "process": [
      1,
      2
    ],
    "country_branch/plant": "China",
    "country_HQ": "China",
    "city": "Ganzhou",
    "lat": 25.831,
    "lng": 114.935,
    "active_years": [
      2011,
      2012,
      2013,
      2014,
      2015,
      2016,
      2017,
      2018,
      2019,
      2020,
      2021,
      2022,
      2023,
      2024
    ]
  },
  {
    "node_id": "CNREGHTCL_CHN_CHN",
    "company_name": "China Northern Rare Earth (Group) High-Tech Co Ltd",
    "process": [
      1,
      2,
      3,
      6
    ],
    "country_branch/plant": "China",
    "country_HQ": "China",
    "city": "Baotou",
    "lat": 40.657,
    "lng": 109.84,
    "active_years": [
      2009,
      2010,
      2011,
      2012,
      2013,
      2014,
      2015,
      2016,
      2017,
      2018,
      2019,
      2020,
      2021,
      2022,
      2023,
      2024
    ]
  },
  {
    "node_id": "CREGC_CHN_CHN",
    "company_name": "China Rare Earth Group (CREG)",
    "process": [
      1,
      2
    ],
    "country_branch/plant": "China",
    "country_HQ": "China",
    "city": "Ganzhou",
    "lat": 25.831,
    "lng": 114.935,
    "active_years": [
      2021,
      2022,
      2023,
      2024
    ]
  },
  {
    "node_id": "CRER_CHN_CHN",
    "company_name": "China Rare Earth Resources",
    "process": [
      1,
      2
    ],
    "country_branch/plant": "China",
    "country_HQ": "China",
    "city": "Ganzhou",
    "lat": 25.831,
    "lng": 114.935,
    "active_years": [
      2009,
      2010,
      2011,
      2012,
      2013,
      2014,
      2015,
      2016,
      2017,
      2018,
      2019,
      2020,
      2021,
      2022,
      2023,
      2024
    ]
  },
  {
    "node_id": "CSREG_CHN_CHN",
    "company_name": "China Southern Rare Earth Group",
    "process": [
      1,
      2
    ],
    "country_branch/plant": "China",
    "country_HQ": "China",
    "city": "Ganzhou",
    "lat": 25.831,
    "lng": 114.935,
    "active_years": [
      2015,
      2016,
      2017,
      2018,
      2019,
      2020,
      2021,
      2022,
      2023,
      2024
    ]
  },
  {
    "node_id": "CTAHM_CHN_CHN",
    "company_name": "China Tungsten And Hightech Materials",
    "process": [
      1,
      2
    ],
    "country_branch/plant": "China",
    "country_HQ": "China",
    "city": "Zhuzhou",
    "lat": 27.827,
    "lng": 113.134,
    "active_years": [
      2009,
      2010,
      2011,
      2012,
      2013,
      2014,
      2015,
      2016,
      2017,
      2018,
      2019,
      2020,
      2021,
      2022,
      2023,
      2024
    ]
  },
  {
    "node_id": "CREMCLC_CHN_CHN",
    "company_name": "Chinalco Rare Earth & Metals Co Ltd (CREMCo)",
    "process": [
      1,
      2
    ],
    "country_branch/plant": "China",
    "country_HQ": "China",
    "city": "Beijing",
    "lat": 39.904,
    "lng": 116.407,
    "active_years": [
      2009,
      2010,
      2011,
      2012,
      2013,
      2014,
      2015,
      2016,
      2017,
      2018,
      2019,
      2020,
      2021,
      2022,
      2023,
      2024
    ]
  },
  {
    "node_id": "CICL_CZE_JPN",
    "company_name": "Chiyoda Integre Co Ltd",
    "process": [
      4
    ],
    "country_branch/plant": "Czech Republic",
    "country_HQ": "Japan",
    "city": "Kladno",
    "lat": 50.143,
    "lng": 14.103,
    "active_years": [
      2009,
      2010,
      2011,
      2012,
      2013,
      2014,
      2015,
      2016,
      2017,
      2018,
      2019,
      2020,
      2021,
      2022,
      2023,
      2024
    ]
  },
  {
    "node_id": "CT_BEL_BEL",
    "company_name": "COMET Traitements",
    "process": [
      6
    ],
    "country_branch/plant": "Belgium",
    "country_HQ": "Belgium",
    "city": "Châtelet",
    "lat": 50.404,
    "lng": 4.528,
    "active_years": [
      2024
    ]
  },
  {
    "node_id": "CS_ROU_ROU",
    "company_name": "Compa SA",
    "process": [
      5
    ],
    "country_branch/plant": "Romania",
    "country_HQ": "Romania",
    "city": "Sibiu",
    "lat": 45.793,
    "lng": 24.152,
    "active_years": [
      2018,
      2019,
      2020,
      2021,
      2022,
      2023,
      2024
    ]
  },
  {
    "node_id": "CA_DEU_DEU",
    "company_name": "Continental AG",
    "process": [
      4
    ],
    "country_branch/plant": "Germany",
    "country_HQ": "Germany",
    "city": "Hanover",
    "lat": 52.376,
    "lng": 9.732,
    "active_years": [
      2009,
      2010,
      2011,
      2012,
      2013,
      2014,
      2015,
      2016,
      2017,
      2018,
      2019,
      2020,
      2021,
      2022,
      2023,
      2024
    ]
  },
  {
    "node_id": "CCL_DEU_CHN",
    "company_name": "CRRC Corporation Limited",
    "process": [
      5
    ],
    "country_branch/plant": "Germany",
    "country_HQ": "China",
    "city": "Frankfurt",
    "lat": 50.111,
    "lng": 8.682,
    "active_years": [
      2015,
      2016,
      2017,
      2018,
      2019,
      2020,
      2021,
      2022,
      2023,
      2024
    ]
  },
  {
    "node_id": "CM_CAN_CAN",
    "company_name": "Cyclic Materials ",
    "process": [
      2,
      6
    ],
    "country_branch/plant": "Canada",
    "country_HQ": "Canada",
    "city": "Kingston",
    "lat": 44.231,
    "lng": -76.486,
    "active_years": [
      2021,
      2022,
      2023,
      2024
    ]
  },
  {
    "node_id": "DSCLDE_JPN_JPN",
    "company_name": "Daido Steel Co Ltd / Daido Electronics",
    "process": [
      2,
      3
    ],
    "country_branch/plant": "Japan",
    "country_HQ": "Japan",
    "city": "Nakatsugawa",
    "lat": 35.487,
    "lng": 137.5,
    "active_years": [
      2009,
      2010,
      2011,
      2012,
      2013,
      2014,
      2015,
      2016,
      2017,
      2018,
      2019,
      2020,
      2021,
      2022,
      2023,
      2024
    ]
  },
  {
    "node_id": "DSCLDE_DEU_JPN",
    "company_name": "Daido Steel Co Ltd / Daido Electronics",
    "process": [
      2,
      3
    ],
    "country_branch/plant": "Germany",
    "country_HQ": "Japan",
    "city": "Frankfurt am Main",
    "lat": 50.111,
    "lng": 8.682,
    "active_years": [
      2015,
      2016,
      2017,
      2018,
      2019,
      2020,
      2021,
      2022,
      2023,
      2024
    ]
  },
  {
    "node_id": "DF_FRA_FRA",
    "company_name": "Daimantel France",
    "process": [
      4
    ],
    "country_branch/plant": "France",
    "country_HQ": "France",
    "city": "Florange",
    "lat": 49.33,
    "lng": 6.115,
    "active_years": [
      2021,
      2022,
      2023,
      2024
    ]
  },
  {
    "node_id": "DI_BEL_USA",
    "company_name": "Dana Incorporated",
    "process": [
      4
    ],
    "country_branch/plant": "Belgium",
    "country_HQ": "USA",
    "city": "Brugge",
    "lat": 51.21,
    "lng": 3.22,
    "active_years": [
      2009,
      2010,
      2011,
      2012,
      2013,
      2014,
      2015,
      2016,
      2017,
      2018,
      2019,
      2020,
      2021,
      2022,
      2023,
      2024
    ]
  },
  {
    "node_id": "DI_HUN_USA",
    "company_name": "Dana Incorporated",
    "process": [
      4
    ],
    "country_branch/plant": "Hungary",
    "country_HQ": "USA",
    "city": "Győr",
    "lat": 47.69,
    "lng": 17.63,
    "active_years": [
      2023,
      2024
    ]
  },
  {
    "node_id": "DI_ESP_USA",
    "company_name": "Dana Incorporated",
    "process": [
      4
    ],
    "country_branch/plant": "Spain",
    "country_HQ": "USA",
    "city": "Zaragoza",
    "lat": 41.65,
    "lng": -0.89,
    "active_years": [
      2009,
      2010,
      2011,
      2012,
      2013,
      2014,
      2015,
      2016,
      2017,
      2018,
      2019,
      2020,
      2021,
      2022,
      2023,
      2024
    ]
  },
  {
    "node_id": "DI_SWE_USA",
    "company_name": "Dana Incorporated",
    "process": [
      4
    ],
    "country_branch/plant": "Sweden",
    "country_HQ": "USA",
    "city": "Åmål",
    "lat": 59.05,
    "lng": 12.7,
    "active_years": [
      2023,
      2024
    ]
  },
  {
    "node_id": "DC_CZE_JPN",
    "company_name": "Denso Corp",
    "process": [
      4
    ],
    "country_branch/plant": "Czech Republic",
    "country_HQ": "Japan",
    "city": "Liberec",
    "lat": 50.7671,
    "lng": 15.0562,
    "active_years": [
      2009,
      2010,
      2011,
      2012,
      2013,
      2014,
      2015,
      2016,
      2017,
      2018,
      2019,
      2020,
      2021,
      2022,
      2023,
      2024
    ]
  },
  {
    "node_id": "DC_HUN_JPN",
    "company_name": "Denso Corp",
    "process": [
      4
    ],
    "country_branch/plant": "Hungary",
    "country_HQ": "Japan",
    "city": "Szekesfehervar",
    "lat": 47.186,
    "lng": 18.4221,
    "active_years": [
      2009,
      2010,
      2011,
      2012,
      2013,
      2014,
      2015,
      2016,
      2017,
      2018,
      2019,
      2020,
      2021,
      2022,
      2023,
      2024
    ]
  },
  {
    "node_id": "DC_ITA_JPN",
    "company_name": "Denso Corp",
    "process": [
      4
    ],
    "country_branch/plant": "Italy",
    "country_HQ": "Japan",
    "city": "San Salvo",
    "lat": 42.062031,
    "lng": 14.717658,
    "active_years": [
      2009,
      2010,
      2011,
      2012,
      2013,
      2014,
      2015,
      2016,
      2017,
      2018,
      2019,
      2020,
      2021,
      2022,
      2023,
      2024
    ]
  },
  {
    "node_id": "DC_ESP_JPN",
    "company_name": "Denso Corp",
    "process": [
      4
    ],
    "country_branch/plant": "Spain",
    "country_HQ": "Japan",
    "city": "Barcelona",
    "lat": 41.745422,
    "lng": 1.930432,
    "active_years": [
      2009,
      2010,
      2011,
      2012,
      2013,
      2014,
      2015,
      2016,
      2017,
      2018,
      2019,
      2020,
      2021,
      2022,
      2023,
      2024
    ]
  },
  {
    "node_id": "DRPCL_CHN_CHN",
    "company_name": "Dongguan Rongtong Plating Co Ltd",
    "process": [
      4
    ],
    "country_branch/plant": "China",
    "country_HQ": "China",
    "city": "Dongguan",
    "lat": 23.0207,
    "lng": 113.7518,
    "active_years": [
      2009,
      2010,
      2011,
      2012,
      2013,
      2014,
      2015,
      2016,
      2017,
      2018,
      2019,
      2020,
      2021,
      2022,
      2023,
      2024
    ]
  },
  {
    "node_id": "EPAM_CHN_CHN",
    "company_name": "Earth-Panda Advanced Magnetic",
    "process": [
      3
    ],
    "country_branch/plant": "China",
    "country_HQ": "China",
    "city": "Hefei",
    "lat": 31.8206,
    "lng": 117.2272,
    "active_years": [
      2009,
      2010,
      2011,
      2012,
      2013,
      2014,
      2015,
      2016,
      2017,
      2018,
      2019,
      2020,
      2021,
      2022,
      2023,
      2024
    ]
  },
  {
    "node_id": "ECP_IRL_IRL",
    "company_name": "Eaton Corp PLC",
    "process": [
      5
    ],
    "country_branch/plant": "Ireland",
    "country_HQ": "Ireland",
    "city": "Dublin",
    "lat": 53.3498,
    "lng": -6.2603,
    "active_years": [
      2009,
      2010,
      2011,
      2012,
      2013,
      2014,
      2015,
      2016,
      2017,
      2018,
      2019,
      2020,
      2021,
      2022,
      2023,
      2024
    ]
  },
  {
    "node_id": "EF_USA_USA",
    "company_name": "Energy Fuels",
    "process": [
      1
    ],
    "country_branch/plant": "USA",
    "country_HQ": "USA",
    "city": "Lakewood",
    "lat": 39.7047,
    "lng": -105.0814,
    "active_years": [
      2021,
      2022,
      2023,
      2024
    ]
  },
  {
    "node_id": "EF_CAN_USA",
    "company_name": "Energy Fuels",
    "process": [
      2
    ],
    "country_branch/plant": "Canada",
    "country_HQ": "USA",
    "city": "Toronto",
    "lat": 43.6532,
    "lng": -79.3832,
    "active_years": [
      2021,
      2022,
      2023,
      2024
    ]
  },
  {
    "node_id": "EMG_DEU_DEU",
    "company_name": "ETO MAGNETIC GmbH",
    "process": [
      4
    ],
    "country_branch/plant": "Germany",
    "country_HQ": "Germany",
    "city": "Stockach",
    "lat": 47.8515,
    "lng": 9.0169,
    "active_years": [
      2009,
      2010,
      2011,
      2012,
      2013,
      2014,
      2015,
      2016,
      2017,
      2018,
      2019,
      2020,
      2021,
      2022,
      2023,
      2024
    ]
  },
  {
    "node_id": "EMRE_GBR_GBR",
    "company_name": "European Metal Recycling (EMR)",
    "process": [
      6
    ],
    "country_branch/plant": "UK",
    "country_HQ": "UK",
    "city": "Warrington",
    "lat": 53.39,
    "lng": -2.5969,
    "active_years": [
      2021,
      2022,
      2023,
      2024
    ]
  },
  {
    "node_id": "F_GBR_GBR",
    "company_name": "Fernox",
    "process": [
      5
    ],
    "country_branch/plant": "UK",
    "country_HQ": "UK",
    "city": "Woking",
    "lat": 51.319,
    "lng": -0.558,
    "active_years": [
      2009,
      2010,
      2011,
      2012,
      2013,
      2014,
      2015,
      2016,
      2017,
      2018,
      2019,
      2020,
      2021,
      2022,
      2023,
      2024
    ]
  },
  {
    "node_id": "FEG_DEU_DEU",
    "company_name": "Fischer Elektromotoren GmbH",
    "process": [
      4
    ],
    "country_branch/plant": "Germany",
    "country_HQ": "Germany",
    "city": "Waldachtal",
    "lat": 48.4935,
    "lng": 8.6001,
    "active_years": [
      2009,
      2010,
      2011,
      2012,
      2013,
      2014,
      2015,
      2016,
      2017,
      2018,
      2019,
      2020,
      2021,
      2022,
      2023,
      2024
    ]
  },
  {
    "node_id": "FE_DEU_DEU",
    "company_name": "Ford EU",
    "process": [
      5
    ],
    "country_branch/plant": "Germany",
    "country_HQ": "Germany",
    "city": "Cologne",
    "lat": 50.9375,
    "lng": 6.9603,
    "active_years": [
      2013,
      2014,
      2015,
      2016,
      2017,
      2018,
      2019,
      2020,
      2021,
      2022,
      2023,
      2024
    ]
  },
  {
    "node_id": "FE_TUR_DEU",
    "company_name": "Ford EU",
    "process": [
      5
    ],
    "country_branch/plant": "Turkey",
    "country_HQ": "Germany",
    "city": "Golcuk",
    "lat": 40.715,
    "lng": 29.8294,
    "active_years": [
      2022,
      2023,
      2024
    ]
  },
  {
    "node_id": "FE_GBR_DEU",
    "company_name": "Ford EU",
    "process": [
      5
    ],
    "country_branch/plant": "UK",
    "country_HQ": "Germany",
    "city": "Liverpool",
    "lat": 53.4084,
    "lng": -2.9916,
    "active_years": [
      2024
    ]
  },
  {
    "node_id": "GMCL_CHN_CHN",
    "company_name": "Galaxy Magnets Company Limited",
    "process": [
      3
    ],
    "country_branch/plant": "China",
    "country_HQ": "China",
    "city": "Chengdu",
    "lat": 30.5728,
    "lng": 104.0668,
    "active_years": [
      2009,
      2010,
      2011,
      2012,
      2013,
      2014,
      2015,
      2016,
      2017,
      2018,
      2019,
      2020,
      2021,
      2022,
      2023,
      2024
    ]
  },
  {
    "node_id": "GCRENMCL_CHN_CHN",
    "company_name": "Ganzhou Chenguang Rare Earth New Materials Co Ltd",
    "process": [
      3
    ],
    "country_branch/plant": "China",
    "country_HQ": "China",
    "city": "Ganzhou",
    "lat": 25.8295,
    "lng": 114.935,
    "active_years": [
      2009,
      2010,
      2011,
      2012,
      2013,
      2014,
      2015,
      2016,
      2017,
      2018,
      2019,
      2020,
      2021,
      2022,
      2023,
      2024
    ]
  },
  {
    "node_id": "GKRENMCL_CHN_CHN",
    "company_name": "Ganzhou Keli Rare Earth New Materials Co Ltd ",
    "process": [
      3
    ],
    "country_branch/plant": "China",
    "country_HQ": "China",
    "city": "Ganzhou",
    "lat": 25.8295,
    "lng": 114.935,
    "active_years": [
      2009,
      2010,
      2011,
      2012,
      2013,
      2014,
      2015,
      2016,
      2017,
      2018,
      2019,
      2020,
      2021,
      2022,
      2023,
      2024
    ]
  },
  {
    "node_id": "GPMMCL_CHN_CHN",
    "company_name": "Ganzhou Poly-Max Magnetics Co Ltd",
    "process": [
      3
    ],
    "country_branch/plant": "China",
    "country_HQ": "China",
    "city": "Ganzhou",
    "lat": 25.8295,
    "lng": 114.935,
    "active_years": [
      2017,
      2018,
      2019,
      2020,
      2021,
      2022,
      2023,
      2024
    ]
  },
  {
    "node_id": "GQREGCL_CHN_CHN",
    "company_name": "Ganzhou Qiandong Rare Earth Group Co Ltd",
    "process": [
      1,
      2
    ],
    "country_branch/plant": "China",
    "country_HQ": "China",
    "city": "Ganzhou",
    "lat": 25.8295,
    "lng": 114.935,
    "active_years": [
      2009,
      2010,
      2011,
      2012,
      2013,
      2014,
      2015,
      2016,
      2017,
      2018,
      2019,
      2020,
      2021,
      2022,
      2023,
      2024
    ]
  },
  {
    "node_id": "GREG_CHN_CHN",
    "company_name": "Ganzhou Rare Earth Group ",
    "process": [
      1,
      2
    ],
    "country_branch/plant": "China",
    "country_HQ": "China",
    "city": "Ganzhou",
    "lat": 25.8295,
    "lng": 114.935,
    "active_years": [
      2009,
      2010,
      2011,
      2012,
      2013,
      2014,
      2015,
      2016,
      2017,
      2018,
      2019,
      2020,
      2021,
      2022,
      2023,
      2024
    ]
  },
  {
    "node_id": "GAL_GBR_GBR",
    "company_name": "GKN Automotive Ltd",
    "process": [
      5
    ],
    "country_branch/plant": "UK",
    "country_HQ": "UK",
    "city": "Birmingham",
    "lat": 52.4862,
    "lng": -1.8904,
    "active_years": [
      2009,
      2010,
      2011,
      2012,
      2013,
      2014,
      2015,
      2016,
      2017,
      2018,
      2019,
      2020,
      2021,
      2022,
      2023,
      2024
    ]
  },
  {
    "node_id": "GPM_DEU_USA",
    "company_name": "GKN Powder Metallurgy",
    "process": [
      3
    ],
    "country_branch/plant": "Germany",
    "country_HQ": "USA",
    "city": "Bonn",
    "lat": 50.7374,
    "lng": 7.0982,
    "active_years": [
      2022,
      2023,
      2024
    ]
  },
  {
    "node_id": "GM_NLD_NLD",
    "company_name": "Goudsmit Magnetics",
    "process": [
      3
    ],
    "country_branch/plant": "Netherlands",
    "country_HQ": "Netherlands",
    "city": "Waalre",
    "lat": 51.3867,
    "lng": 5.4444,
    "active_years": [
      2009,
      2010,
      2011,
      2012,
      2013,
      2014,
      2015,
      2016,
      2017,
      2018,
      2019,
      2020,
      2021,
      2022,
      2023,
      2024
    ]
  },
  {
    "node_id": "GM_FRA_NLD",
    "company_name": "Goudsmit Magnetics",
    "process": [
      4
    ],
    "country_branch/plant": "France",
    "country_HQ": "Netherlands",
    "city": "Neuville-en-Ferrain",
    "lat": 50.7484,
    "lng": 3.1568,
    "active_years": [
      2009,
      2010,
      2011,
      2012,
      2013,
      2014,
      2015,
      2016,
      2017,
      2018,
      2019,
      2020,
      2021,
      2022,
      2023,
      2024
    ]
  },
  {
    "node_id": "GM_DEU_NLD",
    "company_name": "Goudsmit Magnetics",
    "process": [
      4
    ],
    "country_branch/plant": "Germany",
    "country_HQ": "Netherlands",
    "city": "Wetter (Ruhr)",
    "lat": 51.3875,
    "lng": 7.3928,
    "active_years": [
      2009,
      2010,
      2011,
      2012,
      2013,
      2014,
      2015,
      2016,
      2017,
      2018,
      2019,
      2020,
      2021,
      2022,
      2023,
      2024
    ]
  },
  {
    "node_id": "GM_GBR_NLD",
    "company_name": "Goudsmit Magnetics",
    "process": [
      4
    ],
    "country_branch/plant": "UK",
    "country_HQ": "Netherlands",
    "city": "Lisburn",
    "lat": 54.5097,
    "lng": -6.0374,
    "active_years": [
      2009,
      2010,
      2011,
      2012,
      2013,
      2014,
      2015,
      2016,
      2017,
      2018,
      2019,
      2020,
      2021,
      2022,
      2023,
      2024
    ]
  },
  {
    "node_id": "GM_CZE_NLD",
    "company_name": "Goudsmit Magnetics",
    "process": [
      4
    ],
    "country_branch/plant": "Czech Republic",
    "country_HQ": "Netherlands",
    "city": "Mníšek pod Brdy",
    "lat": 49.8665,
    "lng": 14.2618,
    "active_years": [
      2009,
      2010,
      2011,
      2012,
      2013,
      2014,
      2015,
      2016,
      2017,
      2018,
      2019,
      2020,
      2021,
      2022,
      2023,
      2024
    ]
  },
  {
    "node_id": "GRIAMCL_CHN_CHN",
    "company_name": "Grirem Advanced Materials Co Ltd",
    "process": [
      3
    ],
    "country_branch/plant": "China",
    "country_HQ": "China",
    "city": "Beijing",
    "lat": 39.9042,
    "lng": 116.4074,
    "active_years": [
      2009,
      2010,
      2011,
      2012,
      2013,
      2014,
      2015,
      2016,
      2017,
      2018,
      2019,
      2020,
      2021,
      2022,
      2023,
      2024
    ]
  },
  {
    "node_id": "GAS_DNK_DNK",
    "company_name": "Grundfos AS ",
    "process": [
      4
    ],
    "country_branch/plant": "Denmark",
    "country_HQ": "Denmark",
    "city": "Bjerringbro",
    "lat": 56.377,
    "lng": 9.658,
    "active_years": [
      2009,
      2010,
      2011,
      2012,
      2013,
      2014,
      2015,
      2016,
      2017,
      2018,
      2019,
      2020,
      2021,
      2022,
      2023,
      2024
    ]
  },
  {
    "node_id": "GAS_GBR_DNK",
    "company_name": "Grundfos AS ",
    "process": [
      4
    ],
    "country_branch/plant": "UK",
    "country_HQ": "Denmark",
    "city": "Leighton Buzzard",
    "lat": 51.917,
    "lng": -0.661,
    "active_years": [
      2009,
      2010,
      2011,
      2012,
      2013,
      2014,
      2015,
      2016,
      2017,
      2018,
      2019,
      2020,
      2021,
      2022,
      2023,
      2024
    ]
  },
  {
    "node_id": "GTRREHTMCL_CHN_CHN",
    "company_name": "Guangdong TDK Rising Rare Earth High Technology Material Co Ltd",
    "process": [
      3
    ],
    "country_branch/plant": "China",
    "country_HQ": "China",
    "city": "Meizhou",
    "lat": 24.299,
    "lng": 116.119,
    "active_years": [
      2013,
      2014,
      2015,
      2016,
      2017,
      2018,
      2019,
      2020,
      2021,
      2022,
      2023,
      2024
    ]
  },
  {
    "node_id": "HGDM_CHN_CHN",
    "company_name": "Hengdian Group DMEGC Magnetics",
    "process": [
      3
    ],
    "country_branch/plant": "China",
    "country_HQ": "China",
    "city": "Dongyang (Hengdian)",
    "lat": 29.2674,
    "lng": 120.2194,
    "active_years": [
      2009,
      2010,
      2011,
      2012,
      2013,
      2014,
      2015,
      2016,
      2017,
      2018,
      2019,
      2020,
      2021,
      2022,
      2023,
      2024
    ]
  },
  {
    "node_id": "HMCL_ITA_JPN",
    "company_name": "Honda Motor Co Ltd",
    "process": [
      5
    ],
    "country_branch/plant": "Italy",
    "country_HQ": "Japan",
    "city": "Atessa",
    "lat": 42.083,
    "lng": 14.45,
    "active_years": [
      2009,
      2010,
      2011,
      2012,
      2013,
      2014,
      2015,
      2016,
      2017,
      2018,
      2019,
      2020,
      2021,
      2022,
      2023,
      2024
    ]
  },
  {
    "node_id": "HYP_GBR_GBR",
    "company_name": "HyProMag",
    "process": [
      6
    ],
    "country_branch/plant": "UK",
    "country_HQ": "UK",
    "city": "Birmingham",
    "lat": 52.4862,
    "lng": -1.8904,
    "active_years": [
      2024
    ]
  },
  {
    "node_id": "HYUM_CZE_KOR",
    "company_name": "Hyundai Motor",
    "process": [
      5
    ],
    "country_branch/plant": "Czech Republic",
    "country_HQ": "South Korea",
    "city": "Nošovice ",
    "lat": 49.658,
    "lng": 18.4536,
    "active_years": [
      2020,
      2021,
      2022,
      2023,
      2024
    ]
  },
  {
    "node_id": "IC_GBR_JPN",
    "company_name": "IHI Corporation",
    "process": [
      5
    ],
    "country_branch/plant": "UK",
    "country_HQ": "Japan",
    "city": "London",
    "lat": 51.5074,
    "lng": -0.1278,
    "active_years": [
      2009,
      2010,
      2011,
      2012,
      2013,
      2014,
      2015,
      2016,
      2017,
      2018,
      2019,
      2020,
      2021,
      2022,
      2023,
      2024
    ]
  },
  {
    "node_id": "IIAMTASLU_ESP_ESP",
    "company_name": "IMA (Ingeniería Magnética Aplicada SLU)",
    "process": [
      4
    ],
    "country_branch/plant": "Spain",
    "country_HQ": "Spain",
    "city": "Barcelona",
    "lat": 41.3874,
    "lng": 2.1686,
    "active_years": [
      2009,
      2010,
      2011,
      2012,
      2013,
      2014,
      2015,
      2016,
      2017,
      2018,
      2019,
      2020,
      2021,
      2022,
      2023,
      2024
    ]
  },
  {
    "node_id": "IIAMTASLU_CHN_ESP",
    "company_name": "IMA (Ingeniería Magnética Aplicada SLU)",
    "process": [
      4
    ],
    "country_branch/plant": "China",
    "country_HQ": "Spain",
    "city": "Baotou",
    "lat": 40.657,
    "lng": 109.84,
    "active_years": [
      2010,
      2011,
      2012,
      2013,
      2014,
      2015,
      2016,
      2017,
      2018,
      2019,
      2020,
      2021,
      2022,
      2023,
      2024
    ]
  },
  {
    "node_id": "IMBREITCL_CHN_CHN",
    "company_name": "Inner Mongolia Baogang Rare Earth International Trade Co Ltd",
    "process": [
      2
    ],
    "country_branch/plant": "China",
    "country_HQ": "China",
    "city": "Baotou",
    "lat": 40.6574,
    "lng": 109.8403,
    "active_years": [
      2009,
      2010,
      2011,
      2012,
      2013,
      2014,
      2015,
      2016,
      2017,
      2018,
      2019,
      2020,
      2021,
      2022,
      2023,
      2024
    ]
  },
  {
    "node_id": "IMBREMMCL_CHN_CHN",
    "company_name": "Inner Mongolia Baogang Rare Earth Magnetic Material Co Ltd",
    "process": [
      3
    ],
    "country_branch/plant": "China",
    "country_HQ": "China",
    "city": "Baotou",
    "lat": 40.6574,
    "lng": 109.8403,
    "active_years": [
      2009,
      2010,
      2011,
      2012,
      2013,
      2014,
      2015,
      2016,
      2017,
      2018,
      2019,
      2020,
      2021,
      2022,
      2023,
      2024
    ]
  },
  {
    "node_id": "ITCL_CHN_CHN",
    "company_name": "Innuovo Technology Co Ltd",
    "process": [
      3
    ],
    "country_branch/plant": "China",
    "country_HQ": "China",
    "city": "Dongyang (Hengdian)",
    "lat": 29.2674,
    "lng": 120.2194,
    "active_years": [
      2009,
      2010,
      2011,
      2012,
      2013,
      2014,
      2015,
      2016,
      2017,
      2018,
      2019,
      2020,
      2021,
      2022,
      2023,
      2024
    ]
  },
  {
    "node_id": "IASL_ESP_ESP",
    "company_name": "Inserma Anoia SL",
    "process": [
      6
    ],
    "country_branch/plant": "Spain",
    "country_HQ": "Spain",
    "city": "La Pobla de Claramunt",
    "lat": 41.57,
    "lng": 1.67,
    "active_years": [
      2024
    ]
  },
  {
    "node_id": "ILS_GBR_GBR",
    "company_name": "Intelligent Lifecycle Solutions",
    "process": [
      6
    ],
    "country_branch/plant": "UK",
    "country_HQ": "UK",
    "city": "Tonypandy",
    "lat": 51.62,
    "lng": -3.45,
    "active_years": [
      2020,
      2021,
      2022,
      2023,
      2024
    ]
  },
  {
    "node_id": "IT_GBR_GBR",
    "company_name": "Ionic Technologies ",
    "process": [
      2,
      6
    ],
    "country_branch/plant": "UK",
    "country_HQ": "UK",
    "city": "Belfast",
    "lat": 54.5973,
    "lng": -5.9301,
    "active_years": [
      2023,
      2024
    ]
  },
  {
    "node_id": "IMS_ITA_ITA",
    "company_name": "Itaca Magnetics SPA",
    "process": [
      3
    ],
    "country_branch/plant": "Italy",
    "country_HQ": "Italy",
    "city": "Lainate",
    "lat": 45.569,
    "lng": 9.021,
    "active_years": [
      2009,
      2010,
      2011,
      2012,
      2013,
      2014,
      2015,
      2016,
      2017,
      2018,
      2019,
      2020,
      2021,
      2022,
      2023,
      2024
    ]
  },
  {
    "node_id": "JLRJ_GBR_GBR",
    "company_name": "Jaguar Land Rover (JLR)",
    "process": [
      5
    ],
    "country_branch/plant": "UK",
    "country_HQ": "UK",
    "city": "Coventry",
    "lat": 52.4068,
    "lng": -1.5197,
    "active_years": [
      2018,
      2019,
      2020,
      2021,
      2022,
      2023,
      2024
    ]
  },
  {
    "node_id": "JMCL_CHN_CHN",
    "company_name": "Jiada Magnet Co Ltd",
    "process": [
      3,
      6
    ],
    "country_branch/plant": "China",
    "country_HQ": "China",
    "city": "Dongguan",
    "lat": 23.0207,
    "lng": 113.7518,
    "active_years": [
      2009,
      2010,
      2011,
      2012,
      2013,
      2014,
      2015,
      2016,
      2017,
      2018,
      2019,
      2020,
      2021,
      2022,
      2023,
      2024
    ]
  },
  {
    "node_id": "JBNM_CHN_CHN",
    "company_name": "Jiangsu Boqian New Materials ",
    "process": [
      2
    ],
    "country_branch/plant": "China",
    "country_HQ": "China",
    "city": "Suqian",
    "lat": 33.963,
    "lng": 118.275,
    "active_years": [
      2010,
      2011,
      2012,
      2013,
      2014,
      2015,
      2016,
      2017,
      2018,
      2019,
      2020,
      2021,
      2022,
      2023,
      2024
    ]
  },
  {
    "node_id": "JSREG_CHN_CHN",
    "company_name": "Jiangxi South Rare Earth Group",
    "process": [
      1,
      2
    ],
    "country_branch/plant": "China",
    "country_HQ": "China",
    "city": "Ganzhou",
    "lat": 25.85,
    "lng": 114.9333,
    "active_years": [
      2015,
      2016,
      2017,
      2018,
      2019,
      2020,
      2021,
      2022,
      2023,
      2024
    ]
  },
  {
    "node_id": "JMRE_CHN_CHN",
    "company_name": "JL MAG Rare-Earth",
    "process": [
      3
    ],
    "country_branch/plant": "China",
    "country_HQ": "China",
    "city": "Ganzhou",
    "lat": 25.85,
    "lng": 114.9333,
    "active_years": [
      2009,
      2010,
      2011,
      2012,
      2013,
      2014,
      2015,
      2016,
      2017,
      2018,
      2019,
      2020,
      2021,
      2022,
      2023,
      2024
    ]
  },
  {
    "node_id": "JE_ITA_CHN",
    "company_name": "Johnson Electric",
    "process": [
      5
    ],
    "country_branch/plant": "Italy",
    "country_HQ": "China",
    "city": "Milan",
    "lat": 45.43384,
    "lng": 9.103,
    "active_years": [
      2009,
      2010,
      2011,
      2012,
      2013,
      2014,
      2015,
      2016,
      2017,
      2018,
      2019,
      2020,
      2021,
      2022,
      2023,
      2024
    ]
  },
  {
    "node_id": "JE_FRA_CHN",
    "company_name": "Johnson Electric",
    "process": [
      5
    ],
    "country_branch/plant": "France",
    "country_HQ": "China",
    "city": "Bourget",
    "lat": 48.938,
    "lng": 2.404,
    "active_years": [
      2016,
      2017,
      2018,
      2019,
      2020,
      2021,
      2022,
      2023,
      2024
    ]
  },
  {
    "node_id": "JE_DEU_CHN",
    "company_name": "Johnson Electric",
    "process": [
      5
    ],
    "country_branch/plant": "Germany",
    "country_HQ": "China",
    "city": "Halver",
    "lat": 51.1864,
    "lng": 7.4959,
    "active_years": [
      2009,
      2010,
      2011,
      2012,
      2013,
      2014,
      2015,
      2016,
      2017,
      2018,
      2019,
      2020,
      2021,
      2022,
      2023,
      2024
    ]
  },
  {
    "node_id": "JE_GBR_CHN",
    "company_name": "Johnson Electric",
    "process": [
      5
    ],
    "country_branch/plant": "UK",
    "country_HQ": "China",
    "city": "Gateshead",
    "lat": 54.945,
    "lng": 1.685,
    "active_years": [
      2009,
      2010,
      2011,
      2012,
      2013,
      2014,
      2015,
      2016,
      2017,
      2018,
      2019,
      2020,
      2021,
      2022,
      2023,
      2024
    ]
  },
  {
    "node_id": "KREPF_AUS_AUS",
    "company_name": "Kalgoorlie Rare Earths Processing Facility",
    "process": [
      1
    ],
    "country_branch/plant": "Australia",
    "country_HQ": "Australia",
    "city": "Yilkari (Kalgoorlie-Boulder)",
    "lat": -30.82333,
    "lng": 121.4394,
    "active_years": [
      2024
    ]
  },
  {
    "node_id": "KMTG_DEU_DEU",
    "company_name": "Kolektor Magnet Technology GmbH",
    "process": [
      3
    ],
    "country_branch/plant": "Germany",
    "country_HQ": "Germany",
    "city": "Essen",
    "lat": 51.455,
    "lng": 7.011,
    "active_years": [
      2009,
      2010,
      2011,
      2012,
      2013,
      2014,
      2015,
      2016,
      2017,
      2018,
      2019,
      2020,
      2021,
      2022,
      2023,
      2024
    ]
  },
  {
    "node_id": "LS_FRA_JPN",
    "company_name": "Leroy Somer",
    "process": [
      4
    ],
    "country_branch/plant": "France",
    "country_HQ": "Japan",
    "city": "Angoulême",
    "lat": 45.648,
    "lng": 0.158,
    "active_years": [
      2009,
      2010,
      2011,
      2012,
      2013,
      2014,
      2015,
      2016,
      2017,
      2018,
      2019,
      2020,
      2021,
      2022,
      2023,
      2024
    ]
  },
  {
    "node_id": "LS_CZE_JPN",
    "company_name": "Leroy Somer",
    "process": [
      4
    ],
    "country_branch/plant": "Czech Republic",
    "country_HQ": "Japan",
    "city": "Olomouc",
    "lat": 49.5938,
    "lng": 17.2509,
    "active_years": [
      2009,
      2010,
      2011,
      2012,
      2013,
      2014,
      2015,
      2016,
      2017,
      2018,
      2019,
      2020,
      2021,
      2022,
      2023,
      2024
    ]
  },
  {
    "node_id": "LCML_GBR_GBR",
    "company_name": "Less Common Metals (LCM) ",
    "process": [
      2,
      6
    ],
    "country_branch/plant": "UK",
    "country_HQ": "UK",
    "city": "Ellesmere Port",
    "lat": 53.282,
    "lng": -2.897,
    "active_years": [
      2009,
      2010,
      2011,
      2012,
      2013,
      2014,
      2015,
      2016,
      2017,
      2018,
      2019,
      2020,
      2021,
      2022,
      2023,
      2024
    ]
  },
  {
    "node_id": "LLEVC_GBR_GBR",
    "company_name": "LEVC (London Electric Vehicle Company)",
    "process": [
      5
    ],
    "country_branch/plant": "UK",
    "country_HQ": "UK",
    "city": "Coventry",
    "lat": 52.406,
    "lng": -1.512,
    "active_years": [
      2017,
      2018,
      2019,
      2020,
      2021,
      2022,
      2023,
      2024
    ]
  },
  {
    "node_id": "LICL_POL_KOR",
    "company_name": "LG Innotek Co Ltd",
    "process": [
      4
    ],
    "country_branch/plant": "Poland",
    "country_HQ": "South Korea",
    "city": "Biskupice Podgórne",
    "lat": 51.0297,
    "lng": 16.9264,
    "active_years": [
      2009,
      2010,
      2011,
      2012,
      2013,
      2014,
      2015,
      2016,
      2017,
      2018,
      2019,
      2020,
      2021,
      2022,
      2023,
      2024
    ]
  },
  {
    "node_id": "LI_GBR_GBR",
    "company_name": "LV= Insurance",
    "process": [
      6
    ],
    "country_branch/plant": "UK",
    "country_HQ": "UK",
    "city": "Bournemouth",
    "lat": 50.72,
    "lng": -1.879,
    "active_years": [
      2022,
      2023,
      2024
    ]
  },
  {
    "node_id": "LMSB_MYS_AUS",
    "company_name": "Lynas Malaysia Sdn. Bhd",
    "process": [
      2
    ],
    "country_branch/plant": "Malaysia",
    "country_HQ": "Australia",
    "city": "Kuantan (Gebeng)",
    "lat": 3.981,
    "lng": 103.427,
    "active_years": [
      2012,
      2013,
      2014,
      2015,
      2016,
      2017,
      2018,
      2019,
      2020,
      2021,
      2022,
      2023,
      2024
    ]
  },
  {
    "node_id": "LRELM_AUS_AUS",
    "company_name": "Lynas Rare Earths Ltd (Mt Weld Mine)",
    "process": [
      1
    ],
    "country_branch/plant": "Australia",
    "country_HQ": "Australia",
    "city": "Mt Weld (near Laverton)",
    "lat": -28.885,
    "lng": 122.527,
    "active_years": [
      2012,
      2013,
      2014,
      2015,
      2016,
      2017,
      2018,
      2019,
      2020,
      2021,
      2022,
      2023,
      2024
    ]
  },
  {
    "node_id": "MMCL_POL_JPN",
    "company_name": "Mabuchi Motor Co Ltd",
    "process": [
      5
    ],
    "country_branch/plant": "Poland",
    "country_HQ": "Japan",
    "city": "Bochnia",
    "lat": 49.969,
    "lng": 20.431,
    "active_years": [
      2017,
      2018,
      2019,
      2020,
      2021,
      2022,
      2023,
      2024
    ]
  },
  {
    "node_id": "MAI_USA_USA",
    "company_name": "Magnet Applications Inc",
    "process": [
      3
    ],
    "country_branch/plant": "USA",
    "country_HQ": "USA",
    "city": "DuBois",
    "lat": 41.119,
    "lng": -78.76,
    "active_years": [
      2009,
      2010,
      2011,
      2012,
      2013,
      2014,
      2015,
      2016,
      2017,
      2018,
      2019,
      2020,
      2021,
      2022,
      2023,
      2024
    ]
  },
  {
    "node_id": "MB_DEU_DEU",
    "company_name": "Magnetfabrik Bonn",
    "process": [
      3
    ],
    "country_branch/plant": "Germany",
    "country_HQ": "Germany",
    "city": "Bonn",
    "lat": 50.737,
    "lng": 7.098,
    "active_years": [
      2009,
      2010,
      2011,
      2012,
      2013,
      2014,
      2015,
      2016,
      2017,
      2018,
      2019,
      2020,
      2021,
      2022,
      2023,
      2024
    ]
  },
  {
    "node_id": "MLDD_SVN_SVN",
    "company_name": "Magneti Ljubljana dd",
    "process": [
      3
    ],
    "country_branch/plant": "Slovenia",
    "country_HQ": "Slovenia",
    "city": "Ljubljana",
    "lat": 46.051,
    "lng": 14.506,
    "active_years": [
      2009,
      2010,
      2011,
      2012,
      2013,
      2014,
      2015,
      2016,
      2017,
      2018,
      2019,
      2020,
      2021,
      2022,
      2023,
      2024
    ]
  },
  {
    "node_id": "MCL_GBR_GBR",
    "company_name": "Magnom Corporation Limited",
    "process": [
      3
    ],
    "country_branch/plant": "UK",
    "country_HQ": "UK",
    "city": "Leamington Spa",
    "lat": 52.292,
    "lng": -1.536,
    "active_years": [
      2009,
      2010,
      2011,
      2012,
      2013,
      2014,
      2015,
      2016,
      2017,
      2018,
      2019,
      2020,
      2021,
      2022,
      2023,
      2024
    ]
  },
  {
    "node_id": "MAGL_GBR_GBR",
    "company_name": "Magnomatics Ltd",
    "process": [
      5
    ],
    "country_branch/plant": "UK",
    "country_HQ": "UK",
    "city": "Sheffield",
    "lat": 53.381,
    "lng": -1.47,
    "active_years": [
      2009,
      2010,
      2011,
      2012,
      2013,
      2014,
      2015,
      2016,
      2017,
      2018,
      2019,
      2020,
      2021,
      2022,
      2023,
      2024
    ]
  },
  {
    "node_id": "M_FRA_FRA",
    "company_name": "MagREEsource",
    "process": [
      2,
      6
    ],
    "country_branch/plant": "France",
    "country_HQ": "France",
    "city": "Noyarey",
    "lat": 45.24,
    "lng": 5.661,
    "active_years": [
      2020,
      2021,
      2022,
      2023,
      2024
    ]
  },
  {
    "node_id": "MC_GBR_JPN",
    "company_name": "Makita Corporation",
    "process": [
      4
    ],
    "country_branch/plant": "UK",
    "country_HQ": "Japan",
    "city": "Milton Keynes",
    "lat": 52.04,
    "lng": -0.759,
    "active_years": [
      2010,
      2011,
      2012,
      2013,
      2014,
      2015,
      2016,
      2017,
      2018,
      2019,
      2020,
      2021,
      2022,
      2023,
      2024
    ]
  },
  {
    "node_id": "MC_ROU_JPN",
    "company_name": "Makita Corporation",
    "process": [
      4
    ],
    "country_branch/plant": "Romania",
    "country_HQ": "Japan",
    "city": "Brăneşti",
    "lat": 44.983,
    "lng": 25.528,
    "active_years": [
      2009,
      2010,
      2011,
      2012,
      2013,
      2014,
      2015,
      2016,
      2017,
      2018,
      2019,
      2020,
      2021,
      2022,
      2023,
      2024
    ]
  },
  {
    "node_id": "MBG_DEU_DEU",
    "company_name": "Max Baermann GmbH",
    "process": [
      3
    ],
    "country_branch/plant": "Germany",
    "country_HQ": "Germany",
    "city": "Bergisch Gladbach",
    "lat": 50.992,
    "lng": 7.137,
    "active_years": [
      2009,
      2010,
      2011,
      2012,
      2013,
      2014,
      2015,
      2016,
      2017,
      2018,
      2019,
      2020,
      2021,
      2022,
      2023,
      2024
    ]
  },
  {
    "node_id": "MEL_BEL_BEL",
    "company_name": "Melexis",
    "process": [
      4
    ],
    "country_branch/plant": "Belgium",
    "country_HQ": "Belgium",
    "city": "Ieper",
    "lat": 50.851,
    "lng": 2.885,
    "active_years": [
      2009,
      2010,
      2011,
      2012,
      2013,
      2014,
      2015,
      2016,
      2017,
      2018,
      2019,
      2020,
      2021,
      2022,
      2023,
      2024
    ]
  },
  {
    "node_id": "MI_CHN_USA",
    "company_name": "Micrometals Inc",
    "process": [
      4
    ],
    "country_branch/plant": "China",
    "country_HQ": "USA",
    "city": "Shenzhen",
    "lat": 22.543,
    "lng": 114.057,
    "active_years": [
      2010,
      2011,
      2012,
      2013,
      2014,
      2015,
      2016,
      2017,
      2018,
      2019,
      2020,
      2021,
      2022,
      2023,
      2024
    ]
  },
  {
    "node_id": "MG_ITA_CHN",
    "company_name": "Midea Group",
    "process": [
      5
    ],
    "country_branch/plant": "Italy",
    "country_HQ": "China",
    "city": "Feltre",
    "lat": 46.022,
    "lng": 11.905,
    "active_years": [
      2009,
      2010,
      2011,
      2012,
      2013,
      2014,
      2015,
      2016,
      2017,
      2018,
      2019,
      2020,
      2021,
      2022,
      2023,
      2024
    ]
  },
  {
    "node_id": "MTGCK_DEU_DEU",
    "company_name": "MIMplus Technologies GmbH & Co KG",
    "process": [
      4
    ],
    "country_branch/plant": "Germany",
    "country_HQ": "Germany",
    "city": "Ispringen",
    "lat": 48.929,
    "lng": 8.658,
    "active_years": [
      2021,
      2022,
      2023,
      2024
    ]
  },
  {
    "node_id": "MIN_DEU_JPN",
    "company_name": "MinebeaMitsumi",
    "process": [
      5
    ],
    "country_branch/plant": "Germany",
    "country_HQ": "Japan",
    "city": "Villingen-Schwenningen",
    "lat": 48.061,
    "lng": 8.493,
    "active_years": [
      2009,
      2010,
      2011,
      2012,
      2013,
      2014,
      2015,
      2016,
      2017,
      2018,
      2019,
      2020,
      2021,
      2022,
      2023,
      2024
    ]
  },
  {
    "node_id": "MIN_SVK_JPN",
    "company_name": "MinebeaMitsumi",
    "process": [
      5
    ],
    "country_branch/plant": "Slovakia",
    "country_HQ": "Japan",
    "city": "Košice",
    "lat": 48.6657,
    "lng": 21.2721,
    "active_years": [
      2018,
      2019,
      2020,
      2021,
      2022,
      2023,
      2024
    ]
  },
  {
    "node_id": "MP_POL_POL",
    "company_name": "Mkango Polska",
    "process": [
      6
    ],
    "country_branch/plant": "Poland",
    "country_HQ": "Poland",
    "city": "Puławy",
    "lat": 52.3055,
    "lng": 21.0063,
    "active_years": [
      2021,
      2022,
      2023,
      2024
    ]
  },
  {
    "node_id": "MRE_GBR_GBR",
    "company_name": "Mkango Rare Earths UK",
    "process": [
      6
    ],
    "country_branch/plant": "UK",
    "country_HQ": "UK",
    "city": "London",
    "lat": 51.5186,
    "lng": 0.0827,
    "active_years": [
      2021,
      2022,
      2023,
      2024
    ]
  },
  {
    "node_id": "MIMM_USA_USA",
    "company_name": "Molycorp Inc (MP Materials)",
    "process": [
      1
    ],
    "country_branch/plant": "USA",
    "country_HQ": "USA",
    "city": "Mountain Pass",
    "lat": 35.482,
    "lng": -115.545,
    "active_years": [
      2017,
      2018,
      2019,
      2020,
      2021,
      2022,
      2023,
      2024
    ]
  },
  {
    "node_id": "MOO_GBR_USA",
    "company_name": "Moog",
    "process": [
      5
    ],
    "country_branch/plant": "UK",
    "country_HQ": "USA",
    "city": "Tewkesbury",
    "lat": 51.994,
    "lng": -2.158,
    "active_years": [
      2009,
      2010,
      2011,
      2012,
      2013,
      2014,
      2015,
      2016,
      2017,
      2018,
      2019,
      2020,
      2021,
      2022,
      2023,
      2024
    ]
  },
  {
    "node_id": "MS_DEU_DEU",
    "company_name": "MS-Schramberg",
    "process": [
      3,
      4
    ],
    "country_branch/plant": "Germany",
    "country_HQ": "Germany",
    "city": "Schramberg",
    "lat": 48.224,
    "lng": 8.382,
    "active_years": [
      2009,
      2010,
      2011,
      2012,
      2013,
      2014,
      2015,
      2016,
      2017,
      2018,
      2019,
      2020,
      2021,
      2022,
      2023,
      2024
    ]
  },
  {
    "node_id": "MURMCL_FIN_JPN",
    "company_name": "Murata Manufacturing Co Ltd",
    "process": [
      5
    ],
    "country_branch/plant": "Finland",
    "country_HQ": "Japan",
    "city": "Vantaa",
    "lat": 60.2941,
    "lng": 25.0409,
    "active_years": [
      2012,
      2013,
      2014,
      2015,
      2016,
      2017,
      2018,
      2019,
      2020,
      2021,
      2022,
      2023,
      2024
    ]
  },
  {
    "node_id": "MICC_MMR_MMR",
    "company_name": "Myanmar Ionic-Clay Cluster",
    "process": [
      1
    ],
    "country_branch/plant": "Myanmar",
    "country_HQ": "Myanmar",
    "city": "Myitkyina",
    "lat": 25.3946,
    "lng": 97.3841,
    "active_years": [
      2009,
      2010,
      2011,
      2012,
      2013,
      2014,
      2015,
      2016,
      2017,
      2018,
      2019,
      2020,
      2021,
      2022,
      2023,
      2024
    ]
  },
  {
    "node_id": "NHMS_CHN_CHN",
    "company_name": "Nantong Hitachi Metals Sanhuan",
    "process": [
      3
    ],
    "country_branch/plant": "China",
    "country_HQ": "China",
    "city": "Qidong",
    "lat": 31.808,
    "lng": 121.6574,
    "active_years": [
      2016,
      2017,
      2018,
      2019,
      2020,
      2021,
      2022,
      2023,
      2024
    ]
  },
  {
    "node_id": "NM_CHN_CAN",
    "company_name": "Neo Magnequench",
    "process": [
      3,
      6
    ],
    "country_branch/plant": "China",
    "country_HQ": "Canada",
    "city": "Tianjin",
    "lat": 39.1422,
    "lng": 117.1767,
    "active_years": [
      2009,
      2010,
      2011,
      2012,
      2013,
      2014,
      2015,
      2016,
      2017,
      2018,
      2019,
      2020,
      2021,
      2022,
      2023,
      2024
    ]
  },
  {
    "node_id": "NM_THA_CAN",
    "company_name": "Neo Magnequench",
    "process": [
      3,
      6
    ],
    "country_branch/plant": "Thailand",
    "country_HQ": "Canada",
    "city": "Nakhon Ratchasima (Korat)",
    "lat": 14.9707,
    "lng": 102.102,
    "active_years": [
      2009,
      2010,
      2011,
      2012,
      2013,
      2014,
      2015,
      2016,
      2017,
      2018,
      2019,
      2020,
      2021,
      2022,
      2023,
      2024
    ]
  },
  {
    "node_id": "NPM_GBR_CAN",
    "company_name": "Neo Performance Materials",
    "process": [
      4,
      6
    ],
    "country_branch/plant": "UK",
    "country_HQ": "Canada",
    "city": "Essex",
    "lat": 51.7668,
    "lng": 0.4758,
    "active_years": [
      2023,
      2024
    ]
  },
  {
    "node_id": "NME_FRA_FRA",
    "company_name": "Newland Magnetics Europe",
    "process": [
      3
    ],
    "country_branch/plant": "France",
    "country_HQ": "France",
    "city": "Jarnac",
    "lat": 45.679,
    "lng": -0.178,
    "active_years": [
      2019,
      2020,
      2021,
      2022,
      2023,
      2024
    ]
  },
  {
    "node_id": "NFUM_GBR_GBR",
    "company_name": "NFU Mutual",
    "process": [
      6
    ],
    "country_branch/plant": "UK",
    "country_HQ": "UK",
    "city": "Stratford-upon-Avon",
    "lat": 52.1917,
    "lng": -1.7073,
    "active_years": [
      2017,
      2018,
      2019,
      2020,
      2021,
      2022,
      2023,
      2024
    ]
  },
  {
    "node_id": "NC_FRA_JPN",
    "company_name": "Nidec Corp",
    "process": [
      4
    ],
    "country_branch/plant": "France",
    "country_HQ": "Japan",
    "city": "Angoulême",
    "lat": 45.6484,
    "lng": 0.1562,
    "active_years": [
      2017,
      2018,
      2019,
      2020,
      2021,
      2022,
      2023,
      2024
    ]
  },
  {
    "node_id": "NC_ITA_JPN",
    "company_name": "Nidec Corp",
    "process": [
      4
    ],
    "country_branch/plant": "Italy",
    "country_HQ": "Japan",
    "city": "Milan",
    "lat": 45.4642,
    "lng": 9.19,
    "active_years": [
      2012,
      2013,
      2014,
      2015,
      2016,
      2017,
      2018,
      2019,
      2020,
      2021,
      2022,
      2023,
      2024
    ]
  },
  {
    "node_id": "NC_POL_JPN",
    "company_name": "Nidec Corp",
    "process": [
      4
    ],
    "country_branch/plant": "Poland",
    "country_HQ": "Japan",
    "city": "Niepołomice",
    "lat": 50.0389,
    "lng": 20.2219,
    "active_years": [
      2009,
      2010,
      2011,
      2012,
      2013,
      2014,
      2015,
      2016,
      2017,
      2018,
      2019,
      2020,
      2021,
      2022,
      2023,
      2024
    ]
  },
  {
    "node_id": "NC_SVK_JPN",
    "company_name": "Nidec Corp",
    "process": [
      4
    ],
    "country_branch/plant": "Slovakia",
    "country_HQ": "Japan",
    "city": "Zlaté Moravce",
    "lat": 48.3847,
    "lng": 18.4,
    "active_years": [
      2009,
      2010,
      2011,
      2012,
      2013,
      2014,
      2015,
      2016,
      2017,
      2018,
      2019,
      2020,
      2021,
      2022,
      2023,
      2024
    ]
  },
  {
    "node_id": "NC_DEU_JPN",
    "company_name": "Nidec Corp",
    "process": [
      4
    ],
    "country_branch/plant": "Germany",
    "country_HQ": "Japan",
    "city": "Bietigheim-Bissingen",
    "lat": 48.944,
    "lng": 9.129,
    "active_years": [
      2009,
      2010,
      2011,
      2012,
      2013,
      2014,
      2015,
      2016,
      2017,
      2018,
      2019,
      2020,
      2021,
      2022,
      2023,
      2024
    ]
  },
  {
    "node_id": "NFRENMNZMM_CHN_CHN",
    "company_name": "Ningbo Fune Rare Earth New Materials (Ningbo Zhanjie Magnetic Materials)",
    "process": [
      3
    ],
    "country_branch/plant": "China",
    "country_HQ": "China",
    "city": "Ningbo",
    "lat": 29.875,
    "lng": 121.55,
    "active_years": [
      2013,
      2014,
      2015,
      2016,
      2017,
      2018,
      2019,
      2020,
      2021,
      2022,
      2023,
      2024
    ]
  },
  {
    "node_id": "NNMG_CHN_CHN",
    "company_name": "Ningbo Newland Magnetics Group",
    "process": [
      3
    ],
    "country_branch/plant": "China",
    "country_HQ": "China",
    "city": "Ningbo",
    "lat": 29.875,
    "lng": 121.55,
    "active_years": [
      2009,
      2010,
      2011,
      2012,
      2013,
      2014,
      2015,
      2016,
      2017,
      2018,
      2019,
      2020,
      2021,
      2022,
      2023,
      2024
    ]
  },
  {
    "node_id": "NY_CHN_CHN",
    "company_name": "Ningbo Yunsheng",
    "process": [
      3
    ],
    "country_branch/plant": "China",
    "country_HQ": "China",
    "city": "Ningbo",
    "lat": 29.875,
    "lng": 121.55,
    "active_years": [
      2009,
      2010,
      2011,
      2012,
      2013,
      2014,
      2015,
      2016,
      2017,
      2018,
      2019,
      2020,
      2021,
      2022,
      2023,
      2024
    ]
  },
  {
    "node_id": "NZMM_CHN_CHN",
    "company_name": "Ningbo Zhangjie Magnetic Materials",
    "process": [
      3
    ],
    "country_branch/plant": "China",
    "country_HQ": "China",
    "city": "Ningbo",
    "lat": 29.875,
    "lng": 121.55,
    "active_years": [
      2009,
      2010,
      2011,
      2012,
      2013,
      2014,
      2015,
      2016,
      2017,
      2018,
      2019,
      2020,
      2021,
      2022,
      2023,
      2024
    ]
  },
  {
    "node_id": "NCICL_JPN_JPN",
    "company_name": "Nippon Chemical Industrial Co Ltd",
    "process": [
      2,
      3
    ],
    "country_branch/plant": "Japan",
    "country_HQ": "Japan",
    "city": "Tokyo",
    "lat": 35.6895,
    "lng": 139.6917,
    "active_years": [
      2009,
      2010,
      2011,
      2012,
      2013,
      2014,
      2015,
      2016,
      2017,
      2018,
      2019,
      2020,
      2021,
      2022,
      2023,
      2024
    ]
  },
  {
    "node_id": "NDCL_JPN_JPN",
    "company_name": "Nippon Denko Co Ltd",
    "process": [
      2,
      3
    ],
    "country_branch/plant": "Japan",
    "country_HQ": "Japan",
    "city": "Hachinohe",
    "lat": 40.5123,
    "lng": 141.4886,
    "active_years": [
      2009,
      2010,
      2011,
      2012,
      2013,
      2014,
      2015,
      2016,
      2017,
      2018,
      2019,
      2020,
      2021,
      2022,
      2023,
      2024
    ]
  },
  {
    "node_id": "NMCL_GBR_JPN",
    "company_name": "Nissan Motor Co Ltd",
    "process": [
      5
    ],
    "country_branch/plant": "UK",
    "country_HQ": "Japan",
    "city": "Sunderland",
    "lat": 54.906,
    "lng": -1.383,
    "active_years": [
      2010,
      2011,
      2012,
      2013,
      2014,
      2015,
      2016,
      2017,
      2018,
      2019,
      2020,
      2021,
      2022,
      2023,
      2024
    ]
  },
  {
    "node_id": "NO_FIN_FIN",
    "company_name": "Nokia Oyj",
    "process": [
      5
    ],
    "country_branch/plant": "Finland",
    "country_HQ": "Finland",
    "city": "Espoo",
    "lat": 60.2055,
    "lng": 24.6559,
    "active_years": [
      2009,
      2010,
      2011,
      2012,
      2013,
      2014,
      2015,
      2016,
      2017,
      2018,
      2019,
      2020,
      2021,
      2022,
      2023,
      2024
    ]
  },
  {
    "node_id": "NEASL_ESP_ESP",
    "company_name": "Norvento Enerxía SL",
    "process": [
      5
    ],
    "country_branch/plant": "Spain",
    "country_HQ": "Spain",
    "city": "Lugo",
    "lat": 43.012,
    "lng": -7.555,
    "active_years": [
      2016,
      2017,
      2018,
      2019,
      2020,
      2021,
      2022,
      2023,
      2024
    ]
  },
  {
    "node_id": "NL_GBR_JPN",
    "company_name": "NSK Ltd",
    "process": [
      4
    ],
    "country_branch/plant": "UK",
    "country_HQ": "Japan",
    "city": "Maidenhead",
    "lat": 51.5228,
    "lng": -0.7199,
    "active_years": [
      2009,
      2010,
      2011,
      2012,
      2013,
      2014,
      2015,
      2016,
      2017,
      2018,
      2019,
      2020,
      2021,
      2022,
      2023,
      2024
    ]
  },
  {
    "node_id": "NL_POL_JPN",
    "company_name": "NSK Ltd",
    "process": [
      4
    ],
    "country_branch/plant": "Poland",
    "country_HQ": "Japan",
    "city": "Kielce",
    "lat": 50.8661,
    "lng": 20.6286,
    "active_years": [
      2009,
      2010,
      2011,
      2012,
      2013,
      2014,
      2015,
      2016,
      2017,
      2018,
      2019,
      2020,
      2021,
      2022,
      2023,
      2024
    ]
  },
  {
    "node_id": "NL_CZE_JPN",
    "company_name": "NSK Ltd",
    "process": [
      4
    ],
    "country_branch/plant": "Czech Republic",
    "country_HQ": "Japan",
    "city": "Mlada Boleslav",
    "lat": 50.4114,
    "lng": 14.903,
    "active_years": [
      2009,
      2010,
      2011,
      2012,
      2013,
      2014,
      2015,
      2016,
      2017,
      2018,
      2019,
      2020,
      2021,
      2022,
      2023,
      2024
    ]
  },
  {
    "node_id": "O_FRA_FRA",
    "company_name": "Orano",
    "process": [
      2,
      6
    ],
    "country_branch/plant": "France",
    "country_HQ": "France",
    "city": "Châtillon",
    "lat": 48.802,
    "lng": 2.2925,
    "active_years": [
      2024
    ]
  },
  {
    "node_id": "PHC_CZE_JPN",
    "company_name": "Panasonic Holdings Corp",
    "process": [
      5
    ],
    "country_branch/plant": "Czech Republic",
    "country_HQ": "Japan",
    "city": "Pilsen",
    "lat": 49.7384,
    "lng": 13.3736,
    "active_years": [
      2009,
      2010,
      2011,
      2012,
      2013,
      2014,
      2015,
      2016,
      2017,
      2018,
      2019,
      2020,
      2021,
      2022,
      2023,
      2024
    ]
  },
  {
    "node_id": "PHC_DEU_JPN",
    "company_name": "Panasonic Holdings Corp",
    "process": [
      5
    ],
    "country_branch/plant": "Germany",
    "country_HQ": "Japan",
    "city": "Wiesbaden",
    "lat": 50.082,
    "lng": 8.2415,
    "active_years": [
      2009,
      2010,
      2011,
      2012,
      2013,
      2014,
      2015,
      2016,
      2017,
      2018,
      2019,
      2020,
      2021,
      2022,
      2023,
      2024
    ]
  },
  {
    "node_id": "PHC_GBR_JPN",
    "company_name": "Panasonic Holdings Corp",
    "process": [
      5
    ],
    "country_branch/plant": "UK",
    "country_HQ": "Japan",
    "city": "Bracknell",
    "lat": 51.416,
    "lng": -0.753,
    "active_years": [
      2011,
      2012,
      2013,
      2014,
      2015,
      2016,
      2017,
      2018,
      2019,
      2020,
      2021,
      2022,
      2023,
      2024
    ]
  },
  {
    "node_id": "PGS_FRA_FRA",
    "company_name": "Paprec Group SAS",
    "process": [
      6
    ],
    "country_branch/plant": "France",
    "country_HQ": "France",
    "city": "Paris",
    "lat": 48.8566,
    "lng": 2.3522,
    "active_years": [
      2022,
      2023,
      2024
    ]
  },
  {
    "node_id": "P_DEU_DEU",
    "company_name": "Pierburg",
    "process": [
      5
    ],
    "country_branch/plant": "Germany",
    "country_HQ": "Germany",
    "city": "Neuss",
    "lat": 51.2042,
    "lng": 6.6879,
    "active_years": [
      2021,
      2022,
      2023,
      2024
    ]
  },
  {
    "node_id": "POR_DEU_DEU",
    "company_name": "Porsche",
    "process": [
      5
    ],
    "country_branch/plant": "Germany",
    "country_HQ": "Germany",
    "city": "Stuttgart",
    "lat": 48.7758,
    "lng": 9.1829,
    "active_years": [
      2020,
      2021,
      2022,
      2023,
      2024
    ]
  },
  {
    "node_id": "PHML_JPN_JPN",
    "company_name": "Proterial (Hitachi Metals Ltd)",
    "process": [
      3,
      6
    ],
    "country_branch/plant": "Japan",
    "country_HQ": "Japan",
    "city": "Kumagaya",
    "lat": 36.1473,
    "lng": 139.388,
    "active_years": [
      2009,
      2010,
      2011,
      2012,
      2013,
      2014,
      2015,
      2016,
      2017,
      2018,
      2019,
      2020,
      2021,
      2022,
      2023,
      2024
    ]
  },
  {
    "node_id": "PHML_GBR_JPN",
    "company_name": "Proterial (Hitachi Metals Ltd)",
    "process": [
      3,
      6
    ],
    "country_branch/plant": "UK",
    "country_HQ": "Japan",
    "city": "London",
    "lat": 51.5074,
    "lng": -0.1278,
    "active_years": [
      2009,
      2010,
      2011,
      2012,
      2013,
      2014,
      2015,
      2016,
      2017,
      2018,
      2019,
      2020,
      2021,
      2022,
      2023,
      2024
    ]
  },
  {
    "node_id": "PHML_ITA_JPN",
    "company_name": "Proterial (Hitachi Metals Ltd)",
    "process": [
      3,
      6
    ],
    "country_branch/plant": "Italy",
    "country_HQ": "Japan",
    "city": "Milan",
    "lat": 45.4642,
    "lng": 9.19,
    "active_years": [
      2009,
      2010,
      2011,
      2012,
      2013,
      2014,
      2015,
      2016,
      2017,
      2018,
      2019,
      2020,
      2021,
      2022,
      2023,
      2024
    ]
  },
  {
    "node_id": "RRER_GGY_GGY",
    "company_name": "Rainbow Rare Earths (RBW) ",
    "process": [
      1
    ],
    "country_branch/plant": "Guernsey",
    "country_HQ": "Guernsey",
    "city": "St Peter Port",
    "lat": 49.455,
    "lng": -2.535,
    "active_years": [
      2017,
      2018,
      2019,
      2020,
      2021,
      2022,
      2023,
      2024
    ]
  },
  {
    "node_id": "RA_NOR_NOR",
    "company_name": "REEtec AS",
    "process": [
      2,
      6
    ],
    "country_branch/plant": "Norway",
    "country_HQ": "Norway",
    "city": "Porsgrunn",
    "lat": 59.14,
    "lng": 9.656,
    "active_years": [
      2024
    ]
  },
  {
    "node_id": "RCL_GBR_JPN",
    "company_name": "Ricoh Co Ltd",
    "process": [
      5
    ],
    "country_branch/plant": "UK",
    "country_HQ": "Japan",
    "city": "Telford",
    "lat": 52.68,
    "lng": -2.42,
    "active_years": [
      2009,
      2010,
      2011,
      2012,
      2013,
      2014,
      2015,
      2016,
      2017,
      2018,
      2019,
      2020,
      2021,
      2022,
      2023,
      2024
    ]
  },
  {
    "node_id": "RCL_FRA_JPN",
    "company_name": "Ricoh Co Ltd",
    "process": [
      5
    ],
    "country_branch/plant": "France",
    "country_HQ": "Japan",
    "city": "Colmar",
    "lat": 48.06,
    "lng": 7.32,
    "active_years": [
      2009,
      2010,
      2011,
      2012,
      2013,
      2014,
      2015,
      2016,
      2017,
      2018,
      2019,
      2020,
      2021,
      2022,
      2023,
      2024
    ]
  },
  {
    "node_id": "RNM_CHN_CHN",
    "company_name": "Rising Nonferrous Metals",
    "process": [
      2,
      3
    ],
    "country_branch/plant": "China",
    "country_HQ": "China",
    "city": "Guangzhou",
    "lat": 23.1291,
    "lng": 113.2644,
    "active_years": [
      2009,
      2010,
      2011,
      2012,
      2013,
      2014,
      2015,
      2016,
      2017,
      2018,
      2019,
      2020,
      2021,
      2022,
      2023,
      2024
    ]
  },
  {
    "node_id": "RBASBG_DEU_DEU",
    "company_name": "Robert Bosch Automotive Steering (Bosch Group)",
    "process": [
      4
    ],
    "country_branch/plant": "Germany",
    "country_HQ": "Germany",
    "city": "Schwäbisch Gmünd",
    "lat": 48.799,
    "lng": 9.804,
    "active_years": [
      2015,
      2016,
      2017,
      2018,
      2019,
      2020,
      2021,
      2022,
      2023,
      2024
    ]
  },
  {
    "node_id": "RBASBG_HUN_DEU",
    "company_name": "Robert Bosch Automotive Steering (Bosch Group)",
    "process": [
      4
    ],
    "country_branch/plant": "Hungary",
    "country_HQ": "Germany",
    "city": "Maklár",
    "lat": 47.8,
    "lng": 20.4167,
    "active_years": [
      2015,
      2016,
      2017,
      2018,
      2019,
      2020,
      2021,
      2022,
      2023,
      2024
    ]
  },
  {
    "node_id": "RBGBG_DEU_DEU",
    "company_name": "Robert Bosch GmbH (Bosch Group)",
    "process": [
      4,
      6
    ],
    "country_branch/plant": "Germany",
    "country_HQ": "Germany",
    "city": "Bühl",
    "lat": 48.69,
    "lng": 8.12,
    "active_years": [
      2009,
      2010,
      2011,
      2012,
      2013,
      2014,
      2015,
      2016,
      2017,
      2018,
      2019,
      2020,
      2021,
      2022,
      2023,
      2024
    ]
  },
  {
    "node_id": "RBGBG_GBR_DEU",
    "company_name": "Robert Bosch GmbH (Bosch Group)",
    "process": [
      4
    ],
    "country_branch/plant": "UK",
    "country_HQ": "Germany",
    "city": "Denham",
    "lat": 51.58,
    "lng": 0.49,
    "active_years": [
      2009,
      2010,
      2011,
      2012,
      2013,
      2014,
      2015,
      2016,
      2017,
      2018,
      2019,
      2020,
      2021,
      2022,
      2023,
      2024
    ]
  },
  {
    "node_id": "SS_FRA_FRA",
    "company_name": "Safran SA",
    "process": [
      5
    ],
    "country_branch/plant": "France",
    "country_HQ": "France",
    "city": "Paris",
    "lat": 48.8566,
    "lng": 2.3522,
    "active_years": [
      2018,
      2019,
      2020,
      2021,
      2022,
      2023,
      2024
    ]
  },
  {
    "node_id": "SS_GBR_FRA",
    "company_name": "Safran SA",
    "process": [
      5
    ],
    "country_branch/plant": "UK",
    "country_HQ": "France",
    "city": "Gloucester",
    "lat": 51.8642,
    "lng": -2.2382,
    "active_years": [
      2018,
      2019,
      2020,
      2021,
      2022,
      2023,
      2024
    ]
  },
  {
    "node_id": "SA_DEU_DEU",
    "company_name": "Schaeffler AG ",
    "process": [
      4
    ],
    "country_branch/plant": "Germany",
    "country_HQ": "Germany",
    "city": "Herzogenaurach",
    "lat": 49.5667,
    "lng": 10.8833,
    "active_years": [
      2011,
      2012,
      2013,
      2014,
      2015,
      2016,
      2017,
      2018,
      2019,
      2020,
      2021,
      2022,
      2023,
      2024
    ]
  },
  {
    "node_id": "SEGCK_DEU_DEU",
    "company_name": "Sennheiser electronic GmbH & Co KG",
    "process": [
      5
    ],
    "country_branch/plant": "Germany",
    "country_HQ": "Germany",
    "city": "Wedemark",
    "lat": 52.5463,
    "lng": 9.7383,
    "active_years": [
      2009,
      2010,
      2011,
      2012,
      2013,
      2014,
      2015,
      2016,
      2017,
      2018,
      2019,
      2020,
      2021,
      2022,
      2023,
      2024
    ]
  },
  {
    "node_id": "SECCL_JPN_JPN",
    "company_name": "Shin-Etsu Chemical Co Ltd",
    "process": [
      2,
      3,
      6
    ],
    "country_branch/plant": "Japan",
    "country_HQ": "Japan",
    "city": "Echizen",
    "lat": 35.903,
    "lng": 136.183,
    "active_years": [
      2009,
      2010,
      2011,
      2012,
      2013,
      2014,
      2015,
      2016,
      2017,
      2018,
      2019,
      2020,
      2021,
      2022,
      2023,
      2024
    ]
  },
  {
    "node_id": "SECCL_DEU_JPN",
    "company_name": "Shin-Etsu Chemical Co Ltd",
    "process": [
      4
    ],
    "country_branch/plant": "Germany",
    "country_HQ": "Japan",
    "city": "Frankfurt am Main",
    "lat": 50.1109,
    "lng": 8.6821,
    "active_years": [
      2009,
      2010,
      2011,
      2012,
      2013,
      2014,
      2015,
      2016,
      2017,
      2018,
      2019,
      2020,
      2021,
      2022,
      2023,
      2024
    ]
  },
  {
    "node_id": "S_ITA_ITA",
    "company_name": "Siboni",
    "process": [
      5
    ],
    "country_branch/plant": "Italy",
    "country_HQ": "Italy",
    "city": "Forlì",
    "lat": 44.2226,
    "lng": 12.04,
    "active_years": [
      2009,
      2010,
      2011,
      2012,
      2013,
      2014,
      2015,
      2016,
      2017,
      2018,
      2019,
      2020,
      2021,
      2022,
      2023,
      2024
    ]
  },
  {
    "node_id": "SISM_DEU_DEU",
    "company_name": "Siemens (Innomotics / Siemens motors)",
    "process": [
      4
    ],
    "country_branch/plant": "Germany",
    "country_HQ": "Germany",
    "city": "Nuremberg",
    "lat": 49.4521,
    "lng": 11.0767,
    "active_years": [
      2009,
      2010,
      2011,
      2012,
      2013,
      2014,
      2015,
      2016,
      2017,
      2018,
      2019,
      2020,
      2021,
      2022,
      2023,
      2024
    ]
  },
  {
    "node_id": "SEA_DEU_DEU",
    "company_name": "Siemens Energy AG",
    "process": [
      5
    ],
    "country_branch/plant": "Germany",
    "country_HQ": "Germany",
    "city": "Munich",
    "lat": 48.1351,
    "lng": 11.582,
    "active_years": [
      2009,
      2010,
      2011,
      2012,
      2013,
      2014,
      2015,
      2016,
      2017,
      2018,
      2019,
      2020,
      2021,
      2022,
      2023,
      2024
    ]
  },
  {
    "node_id": "SEA_ESP_DEU",
    "company_name": "Siemens Energy AG",
    "process": [
      5
    ],
    "country_branch/plant": "Spain",
    "country_HQ": "Germany",
    "city": "Madrid",
    "lat": 40.4168,
    "lng": -3.7038,
    "active_years": [
      2009,
      2010,
      2011,
      2012,
      2013,
      2014,
      2015,
      2016,
      2017,
      2018,
      2019,
      2020,
      2021,
      2022,
      2023,
      2024
    ]
  },
  {
    "node_id": "SEA_DNK_DEU",
    "company_name": "Siemens Energy AG",
    "process": [
      5
    ],
    "country_branch/plant": "Denmark",
    "country_HQ": "Germany",
    "city": "Copenhagen",
    "lat": 55.6761,
    "lng": 12.5683,
    "active_years": [
      2009,
      2010,
      2011,
      2012,
      2013,
      2014,
      2015,
      2016,
      2017,
      2018,
      2019,
      2020,
      2021,
      2022,
      2023,
      2024
    ]
  },
  {
    "node_id": "SGRE_FRA_DNK",
    "company_name": "Siemens Gamesa Renewable Energy",
    "process": [
      5
    ],
    "country_branch/plant": "France",
    "country_HQ": "Denmark",
    "city": "Courbevoie",
    "lat": 48.9006,
    "lng": 2.2593,
    "active_years": [
      2009,
      2010,
      2011,
      2012,
      2013,
      2014,
      2015,
      2016,
      2017,
      2018,
      2019,
      2020,
      2021,
      2022,
      2023,
      2024
    ]
  },
  {
    "node_id": "SGRE_DNK_DNK",
    "company_name": "Siemens Gamesa Renewable Energy",
    "process": [
      5
    ],
    "country_branch/plant": "Denmark",
    "country_HQ": "Denmark",
    "city": "Brande",
    "lat": 55.9429,
    "lng": 9.1326,
    "active_years": [
      2009,
      2010,
      2011,
      2012,
      2013,
      2014,
      2015,
      2016,
      2017,
      2018,
      2019,
      2020,
      2021,
      2022,
      2023,
      2024
    ]
  },
  {
    "node_id": "SGRE_DEU_DNK",
    "company_name": "Siemens Gamesa Renewable Energy",
    "process": [
      5
    ],
    "country_branch/plant": "Germany",
    "country_HQ": "Denmark",
    "city": "Hamburg",
    "lat": 53.5511,
    "lng": 9.9937,
    "active_years": [
      2009,
      2010,
      2011,
      2012,
      2013,
      2014,
      2015,
      2016,
      2017,
      2018,
      2019,
      2020,
      2021,
      2022,
      2023,
      2024
    ]
  },
  {
    "node_id": "SRGCL_CHN_CHN",
    "company_name": "Sinomine Resource Group Co Ltd",
    "process": [
      1,
      2
    ],
    "country_branch/plant": "China",
    "country_HQ": "China",
    "city": "Beijing",
    "lat": 39.9042,
    "lng": 116.4074,
    "active_years": [
      2009,
      2010,
      2011,
      2012,
      2013,
      2014,
      2015,
      2016,
      2017,
      2018,
      2019,
      2020,
      2021,
      2022,
      2023,
      2024
    ]
  },
  {
    "node_id": "SC_GBR_JPN",
    "company_name": "SMC Corporation ",
    "process": [
      4
    ],
    "country_branch/plant": "UK",
    "country_HQ": "Japan",
    "city": "Milton Keynes",
    "lat": 52.0406,
    "lng": -0.7594,
    "active_years": [
      2020,
      2021,
      2022,
      2023,
      2024
    ]
  },
  {
    "node_id": "SMDS_GBR_GBR",
    "company_name": "Soil Machine Dynamics (SMD)",
    "process": [
      5
    ],
    "country_branch/plant": "UK",
    "country_HQ": "UK",
    "city": "Wallsend",
    "lat": 54.991,
    "lng": -1.532,
    "active_years": [
      2009,
      2010,
      2011,
      2012,
      2013,
      2014,
      2015,
      2016,
      2017,
      2018,
      2019,
      2020,
      2021,
      2022,
      2023,
      2024
    ]
  },
  {
    "node_id": "SOL_BEL_BEL",
    "company_name": "Solvay",
    "process": [
      2
    ],
    "country_branch/plant": "Belgium",
    "country_HQ": "Belgium",
    "city": "Brussels",
    "lat": 50.8503,
    "lng": 4.3517,
    "active_years": [
      2022,
      2023,
      2024
    ]
  },
  {
    "node_id": "SOL_FRA_BEL",
    "company_name": "Solvay",
    "process": [
      2,
      6
    ],
    "country_branch/plant": "France",
    "country_HQ": "Belgium",
    "city": "La Rochelle",
    "lat": 46.1603,
    "lng": -1.1511,
    "active_years": [
      2022,
      2023,
      2024
    ]
  },
  {
    "node_id": "SBDI_GBR_USA",
    "company_name": "Stanley Black & Decker Inc",
    "process": [
      5
    ],
    "country_branch/plant": "UK",
    "country_HQ": "USA",
    "city": "Slough",
    "lat": 51.51,
    "lng": -0.58,
    "active_years": [
      2009,
      2010,
      2011,
      2012,
      2013,
      2014,
      2015,
      2016,
      2017,
      2018,
      2019,
      2020,
      2021,
      2022,
      2023,
      2024
    ]
  },
  {
    "node_id": "SBDI_CZE_USA",
    "company_name": "Stanley Black & Decker Inc",
    "process": [
      5
    ],
    "country_branch/plant": "Czech Republic",
    "country_HQ": "USA",
    "city": "Brno",
    "lat": 49.1951,
    "lng": 16.6068,
    "active_years": [
      2009,
      2010,
      2011,
      2012,
      2013,
      2014,
      2015,
      2016,
      2017,
      2018,
      2019,
      2020,
      2021,
      2022,
      2023,
      2024
    ]
  },
  {
    "node_id": "STE_NLD_NLD",
    "company_name": "Stellantis",
    "process": [
      5
    ],
    "country_branch/plant": "Netherlands",
    "country_HQ": "Netherlands",
    "city": "Amsterdam",
    "lat": 52.3676,
    "lng": 4.9041,
    "active_years": [
      2021,
      2022,
      2023,
      2024
    ]
  },
  {
    "node_id": "SRIA_SWE_SWE",
    "company_name": "STENA Recycling International AB",
    "process": [
      6
    ],
    "country_branch/plant": "Sweden",
    "country_HQ": "Sweden",
    "city": "Gothenburg",
    "lat": 57.7089,
    "lng": 11.9746,
    "active_years": [
      2016,
      2017,
      2018,
      2019,
      2020,
      2021,
      2022,
      2023,
      2024
    ]
  },
  {
    "node_id": "SMMCL_JPN_JPN",
    "company_name": "Sumitomo Metal Mining Co Ltd",
    "process": [
      2
    ],
    "country_branch/plant": "Japan",
    "country_HQ": "Japan",
    "city": "Tokyo",
    "lat": 35.6895,
    "lng": 139.6917,
    "active_years": [
      2009,
      2010,
      2011,
      2012,
      2013,
      2014,
      2015,
      2016,
      2017,
      2018,
      2019,
      2020,
      2021,
      2022,
      2023,
      2024
    ]
  },
  {
    "node_id": "SMC_HUN_JPN",
    "company_name": "Suzuki Motor Corp",
    "process": [
      5
    ],
    "country_branch/plant": "Hungary",
    "country_HQ": "Japan",
    "city": "Esztergom",
    "lat": 47.792,
    "lng": 18.7415,
    "active_years": [
      2009,
      2010,
      2011,
      2012,
      2013,
      2014,
      2015,
      2016,
      2017,
      2018,
      2019,
      2020,
      2021,
      2022,
      2023,
      2024
    ]
  },
  {
    "node_id": "SL_GBR_GBR",
    "company_name": "SYNETIQ Ltd",
    "process": [
      6
    ],
    "country_branch/plant": "UK",
    "country_HQ": "UK",
    "city": "Doncaster",
    "lat": 53.5228,
    "lng": -1.1285,
    "active_years": [
      2019,
      2020,
      2021,
      2022,
      2023,
      2024
    ]
  },
  {
    "node_id": "TCTJMC_JPN_JPN",
    "company_name": "TDK Corporation/ TDK-JFE Magnetics Corporation",
    "process": [
      3,
      6
    ],
    "country_branch/plant": "Japan",
    "country_HQ": "Japan",
    "city": "Tokyo",
    "lat": 35.6895,
    "lng": 139.6917,
    "active_years": [
      2009,
      2010,
      2011,
      2012,
      2013,
      2014,
      2015,
      2016,
      2017,
      2018,
      2019,
      2020,
      2021,
      2022,
      2023,
      2024
    ]
  },
  {
    "node_id": "TGRENMCL_CHN_CHN",
    "company_name": "TDK Ganzhou Rare Earth New Materials Co Ltd",
    "process": [
      3
    ],
    "country_branch/plant": "China",
    "country_HQ": "China",
    "city": "Ganzhou",
    "lat": 25.84664,
    "lng": 114.9326,
    "active_years": [
      2019,
      2020,
      2021,
      2022,
      2023,
      2024
    ]
  },
  {
    "node_id": "T_ESP_ESP",
    "company_name": "TECNALIA",
    "process": [
      6
    ],
    "country_branch/plant": "Spain",
    "country_HQ": "Spain",
    "city": "Derio",
    "lat": 43.295935,
    "lng": -2.871209,
    "active_years": [
      2015,
      2016,
      2017,
      2018,
      2019,
      2020,
      2021,
      2022,
      2023,
      2024
    ]
  },
  {
    "node_id": "TES_DEU_USA",
    "company_name": "Tesla",
    "process": [
      5
    ],
    "country_branch/plant": "Germany",
    "country_HQ": "USA",
    "city": "Grünheide (Mark)",
    "lat": 52.4167,
    "lng": 13.8167,
    "active_years": [
      2022,
      2023,
      2024
    ]
  },